醫事機構代碼,醫事機構名稱,醫事機構地址,經度,緯度,醫事機構電話,廠牌項目,快篩試劑截至目前結餘存貨數量,來源資料時間,備註
0291010010,連江縣立醫院,連江縣南竿鄉復興村２１７號,119.9492,26.16084,(083)623995,羅氏家用新冠病毒抗原自我檢測套組,206,2022/10/25 10:13:02,固定周一至周六上午8:30-9:30快篩試劑販售.
2331200010,新北市坪林區衛生所,新北市坪林區坪林街１０４號,121.7095,24.93592,(02)26656272,羅氏家用新冠病毒抗原自我檢測套組,197,2022/10/25 10:13:02,防疫口罩販售服務時間，星期一至五09:00-12:00 。（倘若遇政府規定補班日，仍會提供販售口罩服務）
2331220012,新北市石門區衛生所,新北市石門區中山路２８－１號,121.566,25.29016,(02)26381007,羅氏家用新冠病毒抗原自我檢測套組,110,2022/10/25 10:13:02,無
2331240014,新北市平溪區衛生所,新北市平溪區公園街１７號１樓,121.7365,25.02469,(02)24951015,羅氏家用新冠病毒抗原自我檢測套組,169,2022/10/25 10:13:02,快篩試劑販售時間:週一至週五上午9:00至12:00 。視訊門診時間:週一至週五上午11:00至12:00 。
2331260016,新北市貢寮區衛生所,新北市貢寮區仁愛路１２８號,121.9095,25.02258,(02)24901431,羅氏家用新冠病毒抗原自我檢測套組,185,2022/10/25 10:13:02,快篩試劑販售時間為周一至周五早上9點開始販售，每日販售一箱，數量有限售完為止。
2331290014,新北市烏來區衛生所,新北市烏來區新烏路５段１０９號,121.548,24.87197,(02)26617200,羅氏家用新冠病毒抗原自我檢測套組,237,2022/10/25 10:13:02,無
2333070010,新竹縣橫山鄉衛生所,新竹縣橫山鄉大肚村３鄰新興街１４１巷１０號,121.1393,24.71756,(03)5932004,羅氏家用新冠病毒抗原自我檢測套組,218,2022/10/25 10:13:02,實名制快篩試劑販賣：週一至週五12：30~13：30
2333100013,新竹縣寶山鄉衛生所,新竹縣寶山鄉雙溪村７鄰雙園路二段２７３號,120.9949,24.76691,(03)5292106,羅氏家用新冠病毒抗原自我檢測套組,240,2022/10/25 10:13:02,快篩試劑於星期一~星期六8:30-9:30販售
2333110019,新竹縣北埔鄉衛生所,新竹縣北埔鄉北埔街９０號,121.0555,24.70055,(03)5801677,羅氏家用新冠病毒抗原自我檢測套組,402,2022/10/25 10:13:02,雙十節休診
2333120015,新竹縣峨眉鄉衛生所,新竹縣峨眉鄉峨眉村峨眉街２鄰５號,121.0214,24.68842,(03)5800314,羅氏家用新冠病毒抗原自我檢測套組,422,2022/10/25 10:13:02,本所10月7日（五）下午眼科門診，周三下午為中醫門診，上班日快篩試劑販賣為中午12至13時，周六.周日及國定假日停賣
2333130011,新竹縣尖石鄉衛生所,新竹縣尖石鄉嘉樂村２鄰６１號,121.2023,24.70562,(03)5842356,羅氏家用新冠病毒抗原自我檢測套組,194,2022/10/25 10:13:02,10／8-10／10 國慶連假無門診。無急診
2333140017,新竹縣五峰鄉衛生所,新竹縣五峰鄉大隘村六鄰９９號,121.1194,24.63184,(03)5851005,羅氏家用新冠病毒抗原自我檢測套組,147,2022/10/25 10:13:02,無
2334110013,宜蘭縣大同鄉衛生所,宜蘭縣大同鄉崙埤村朝陽４０號,121.6088,24.67785,(03)9801175,羅氏家用新冠病毒抗原自我檢測套組,212,2022/10/25 10:13:02,防疫快篩試劑販賣時間為週一到週五上午10:50-11:50 （或售罄為止），10:40開始發放號碼牌，詳細事項請至本所網站查詢。
2335110017,苗栗縣南庄鄉衛生所,苗栗縣南庄鄉東村大同路１７號,121,24.59733,(037)822024,羅氏家用新冠病毒抗原自我檢測套組,157,2022/10/25 10:13:02,快篩試劑販賣時段:週一至週五上午8:00~下午5:00
2335140015,苗栗縣西湖鄉衛生所,苗栗縣西湖鄉龍洞村１鄰１６號,120.7577,24.5578,(037)921211,羅氏家用新冠病毒抗原自我檢測套組,172,2022/10/25 10:13:02,本所已無販售口罩
2335150011,苗栗縣造橋鄉衛生所,苗栗縣造橋鄉造橋村１４鄰８－２號,120.8643,24.63672,(037)542755,羅氏家用新冠病毒抗原自我檢測套組,419,2022/10/25 10:13:02,實名制快篩試劑販賣時段：周一至周五08:20-12:00；週六、日及國定假日無販售。
2335160017,苗栗縣三灣鄉衛生所,苗栗縣三灣鄉三灣村親民路１７號,120.9566,24.65284,(037)831140,羅氏家用新冠病毒抗原自我檢測套組,284,2022/10/25 10:13:02,快篩試劑販售時間：星期一至星期五08：30~15：30；星期六日及國定假日無販售
2335170013,苗栗縣獅潭鄉衛生所,苗栗縣獅潭鄉新店村１３０之６號,120.9201,24.53961,(037)931309,羅氏家用新冠病毒抗原自我檢測套組,389,2022/10/25 10:13:02,無
2335180019,苗栗縣泰安鄉衛生所,苗栗縣泰安鄉清安村２鄰７２號,120.9083,24.44722,(037)941054,羅氏家用新冠病毒抗原自我檢測套組,276,2022/10/25 10:13:02,口罩販賣時段：星期一~五：8:30~12：00。
2336210034,臺中市和平區梨山衛生所,臺中市和平區中正路１２號１樓、６８號１樓,121.2592,24.25678,(04)25989540,羅氏家用新冠病毒抗原自我檢測套組,71,2022/10/25 10:13:02,提供24小時急診待診服務，快篩販售時段為周一至五0900-1200，六日及國定假日為0900-1100
2338070010,南投縣鹿谷鄉衛生所,南投縣鹿谷鄉中正路二段２０號,120.7542,23.74488,(049)2752002,羅氏家用新冠病毒抗原自我檢測套組,35,2022/10/25 10:13:02,快篩試劑販售時間 上班日（星期一至星期五）14:00~16:00
2338080016,南投縣中寮鄉衛生所,南投縣中寮鄉永平村永昌街１０２號,120.7657,23.881,(049)2691404,羅氏家用新冠病毒抗原自我檢測套組,242,2022/10/25 10:13:02,休診。口罩販售時間：每天8:00-10:00（發號碼牌）
2338120015,南投縣信義鄉衛生所,南投縣信義鄉明德村玉山路４５號,120.8547,23.69653,(049)2791148,羅氏家用新冠病毒抗原自我檢測套組,149,2022/10/25 10:13:02,快篩試劑販售時間星期一至星期五上午09：00-11：00，現場排隊發售，國定假日不販賣。增加販售點請至本所網站參閱。
2340170016,嘉義縣大埔鄉衛生所,嘉義縣大埔鄉大埔村５３－１號,120.5928,23.29397,(05)2521214,羅氏家用新冠病毒抗原自我檢測套組,58,2022/10/25 10:13:02,無
2340180012,嘉義縣阿里山鄉衛生所,嘉義縣阿里山鄉樂野村３鄰９７－２號,120.7019,23.4666,(05)2561573,羅氏家用新冠病毒抗原自我檢測套組,212,2022/10/25 10:13:02,阿里山遊樂區
2341120010,臺南市下營區衛生所,臺南市下營區營前里中山路二段１３７號,120.2624,23.23154,(06)6892149,羅氏家用新冠病毒抗原自我檢測套組,525,2022/10/25 10:13:02,家用快篩試劑販賣時間為每周一至週五下午4點到五點（國定假日及假日停止販售），請民眾攜帶健保卡及自備零錢購買。
2341220015,臺南市山上區衛生所,臺南市山上區山上里３５－２號,120.3582,23.09859,(06)5781013,羅氏家用新冠病毒抗原自我檢測套組,163,2022/10/25 10:13:02,防疫快篩販售時間每週一、三、四、五為14點至15點，週二16點至17點，週六、日及例假日不販售
2341240017,臺南市楠西區衛生所,臺南市楠西區楠西里中正路２２６號,120.4859,23.17477,(06)5751006,羅氏家用新冠病毒抗原自我檢測套組,282,2022/10/25 10:13:02,門診看診時間為本月第四週W5早上8:30-11:30及W2及W4下午1:30-4:30；家用快篩試劑販售時間為W1-5早上10:30-12:00
2341250013,臺南市南化區衛生所,臺南市南化區南化里２２６－１號,120.4793,23.0444,(06)5771139,羅氏家用新冠病毒抗原自我檢測套組,55,2022/10/25 10:13:02,實名制快篩試劑販售暨0-6歲公費領用時間:周一到周五下午2點30分-4點整，2點20分開始發放號碼牌售完提早結束。
2341260019,臺南市左鎮區衛生所,臺南市左鎮區中正里１７２之１５號,120.4099,23.05631,(06)5731114,羅氏家用新冠病毒抗原自我檢測套組,174,2022/10/25 10:13:02,快篩試劑販賣時間:星期一至五，上午9-11時
2341300018,臺南市龍崎區衛生所,臺南市龍崎區崎頂里新市子１５８號,120.3618,22.96521,(06)5941397,羅氏家用新冠病毒抗原自我檢測套組,119,2022/10/25 10:13:02,無
2342130010,高雄市田寮區衛生所,高雄市田寮區南安里崗北路３２號,120.3594,22.87301,(07)6361504,羅氏家用新冠病毒抗原自我檢測套組,141,2022/10/25 10:13:02,巡迴醫療:每星期一、四下午及每月第一個有上班的星期三下午巡迴醫療
2342180010,高雄市永安區衛生所,高雄市永安區永安路２６號,120.2254,22.81879,(07)6912015,羅氏家用新冠病毒抗原自我檢測套組,90,2022/10/25 10:13:02,本所防疫快篩試劑販賣時間為週一到週五上班日 9:00-11:00 （或售罄為止），現場叫號不到，視同放棄
2342230015,高雄市杉林區衛生所,高雄市杉林區上平里山仙路９３巷２號,120.5386,22.97693,(07)6771319,羅氏家用新冠病毒抗原自我檢測套組,237,2022/10/25 10:13:02,快篩試劑販售時間為週一至週五上午09:00~11:00（當試劑數量售完或超過本所販售時間，則停止當日銷售）
2342250017,高雄市茂林區衛生所,高雄市茂林區茂林里茂林巷８－４號,120.6641,22.88641,(07)6801046,羅氏家用新冠病毒抗原自我檢測套組,525,2022/10/25 10:13:02,夜間急診，請先撥電話07-6801046
2342260013,高雄市桃源區衛生所,高雄市桃源區桃源里南進巷１８８－１號,120.7642,23.15845,(07)6861126,羅氏家用新冠病毒抗原自我檢測套組,186,2022/10/25 10:13:02,IDS提供24小時服務
2342270019,高雄市那瑪夏區衛生所,高雄市那瑪夏區瑪雅里６鄰平和巷２５２號,120.7024,23.24708,(07)6701142,羅氏家用新冠病毒抗原自我檢測套組,264,2022/10/25 10:13:02,春節期間正常門診
2343140010,屏東縣竹田鄉衛生所,屏東縣竹田鄉竹田村中山路２５號,120.5431,22.58637,(08)7710445,羅氏家用新冠病毒抗原自我檢測套組,169,2022/10/25 10:13:02,1110820起  星期六 日 國定假日 停止販售快篩試劑    星期一至星期五08:00-12:00  13:30-17:30
2343210017,屏東縣佳冬鄉衛生所,屏東縣佳冬鄉六根村佳和路８７－１號,120.5496,22.41426,(08)8662018,羅氏家用新冠病毒抗原自我檢測套組,220,2022/10/25 10:13:02,販賣快篩試劑時間:週一至周五08:00-11:30
2343230019,屏東縣車城鄉衛生所,屏東縣車城鄉福安村福安路２之３０號,120.7125,22.06986,(08)8821300,羅氏家用新冠病毒抗原自我檢測套組,86,2022/10/25 10:13:02,販賣快篩試劑時間:週一~週五10:00至12:00，
2343240015,屏東縣滿州鄉衛生所,屏東縣滿州鄉滿州村中山路３１號,120.8381,22.01898,(08)8801279,羅氏家用新冠病毒抗原自我檢測套組,233,2022/10/25 10:13:02,販賣快篩試劑時間:週一~週五8:30-11:30，14:00-16:00
2343250011,屏東縣枋山鄉衛生所,屏東縣枋山鄉枋山村枋山路９８號,120.6527,22.26464,(08)8761150,羅氏家用新冠病毒抗原自我檢測套組,254,2022/10/25 10:13:02,每周一~五上班時段（中午12點~1點30分休息時間），提供快篩試劑販售及兌換。
2343260017,屏東縣三地門鄉衛生所,屏東縣三地門鄉三地村行政街４號,120.653,22.71477,(08)7991284,羅氏家用新冠病毒抗原自我檢測套組,191,2022/10/25 10:13:02,假日及夜間提供待診；快篩販售時間每日上午0900~1200；週一到五下午1400～1700賣完為止
2343270013,屏東縣霧台鄉衛生所,屏東縣霧台鄉霧台村神山巷６８號,120.7261,22.74989,(08)7902232,羅氏家用新冠病毒抗原自我檢測套組,108,2022/10/25 10:13:02,快篩試劑星期一至五 8:30-12:00 13:00-17:00
2343280019,屏東縣瑪家鄉衛生所,屏東縣瑪家鄉北葉村風景巷８６號,120.6496,22.70801,(08)7991164,羅氏家用新冠病毒抗原自我檢測套組,216,2022/10/25 10:13:02,快篩試劑販售時間:星期一至星期日8:30-11:30 13:00-16:00
2343290015,屏東縣泰武鄉衛生所,屏東縣泰武鄉佳平村１７９號,120.6327,22.59212,(08)7832059,羅氏家用新冠病毒抗原自我檢測套組,208,2022/10/25 10:13:02,10／10門診照常販賣快篩試劑時間：週一～週五８：３０至１６：００
2343300016,屏東縣來義鄉衛生所,屏東縣來義鄉古樓村中正路９０號,120.632,22.52584,(08)7850103,羅氏家用新冠病毒抗原自我檢測套組,168,2022/10/25 10:13:02,販售及領用免費快篩試劑時間:週一至週五早上8:00--12:00，下午2:00--4:00
2343310012,屏東縣春日鄉衛生所,屏東縣春日鄉春日村春日路１７６號,120.6251,22.37008,(08)8780358,羅氏家用新冠病毒抗原自我檢測套組,126,2022/10/25 10:13:02,販賣快篩試劑時間 週一至週五時段為08:30-12:00，下午14:00-17:00售完為止 週六日不販售
2343320018,屏東縣獅子鄉衛生所,屏東縣獅子鄉楓林村楓林二巷３１號,120.7057,22.18402,(08)8771324,羅氏家用新冠病毒抗原自我檢測套組,81,2022/10/25 10:13:02,販售快篩試劑時間 :週一至週五0900~1200，1400~1700；假日0900~1200
2343330014,屏東縣牡丹鄉衛生所,屏東縣牡丹鄉石門村１９號,120.7469,22.10105,(08)8831013,羅氏家用新冠病毒抗原自我檢測套組,159,2022/10/25 10:13:02,早上9:00 實名制快篩販售（售完為止）
2344030013,澎湖縣白沙鄉衛生所,澎湖縣白沙鄉赤崁村３５９號,119.5982,23.66669,(06)9931044,羅氏家用新冠病毒抗原自我檢測套組,80,2022/10/25 10:13:02,星期日上午門診看診（每月最後一個星期日休診）； 星期五上午巡迴醫療（中屯村，講美村，通樑村）
2344030022,澎湖縣白沙鄉鳥嶼衛生所,澎湖縣白沙鄉鳥嶼村漁港新村３號,119.6599,23.66008,(06)9916092,羅氏家用新冠病毒抗原自我檢測套組,98,2022/10/25 10:13:02,非上班時間提供急診服務
2344030031,澎湖縣白沙鄉吉貝衛生所,澎湖縣白沙鄉吉貝村８－１３號,119.6138,23.74056,(06)9911430,羅氏家用新冠病毒抗原自我檢測套組,139,2022/10/25 10:13:02,無
2344050015,澎湖縣望安鄉衛生所,澎湖縣望安鄉西安村３６－７號,119.4972,23.36161,(06)9991036,羅氏家用新冠病毒抗原自我檢測套組,51,2022/10/25 10:13:02,夜間急診。快篩試劑販售時間為:每日08:00-12:00、13:30-17:30售完為止，如有餘數為離島未售出（東嶼坪、花嶼）。
2344050024,澎湖縣望安鄉將軍衛生所,澎湖縣望安鄉將軍村１２鄰將軍澳１之３號,119.5216,23.3615,(06)9902066,羅氏家用新冠病毒抗原自我檢測套組,77,2022/10/25 10:13:02,24小時急診
2344060011,澎湖縣七美鄉衛生所,澎湖縣七美鄉中和村埔內５４號,119.431,23.2041,(06)9971005,羅氏家用新冠病毒抗原自我檢測套組,372,2022/10/25 10:13:02,無
2345080017,衛生福利部花蓮醫院豐濱原住民分院,花蓮縣豐濱鄉豐濱村光豐路４１號,121.5215,23.60195,(03)8358141,羅氏家用新冠病毒抗原自我檢測套組,82,2022/10/25 10:13:02,*本院口罩每天販售，時間自上午8點至晚上9點  *本院週一至週五上下午皆有門診，星期六隔週提供門診，及24小時急診。
2345100014,花蓮縣富里鄉衛生所,花蓮縣富里鄉富里村中山路２０３號,121.2491,23.17847,(03)8831029,羅氏家用新冠病毒抗原自我檢測套組,304,2022/10/25 10:13:02,*內科:每週二下午東里玉蓮寺巡診 **牙科:每週二至卓溪醫療站***新冠肺炎快篩試劑販賣時間8:30開始售完為止
2345110010,花蓮縣秀林鄉衛生所,花蓮縣秀林鄉秀林村１２鄰秀林路８８號,121.6334,24.1269,(03)8612122,羅氏家用新冠病毒抗原自我檢測套組,143,2022/10/25 10:13:02,快篩試劑代售時間上班日上午8:10至12時止
2345120016,花蓮縣萬榮鄉衛生所,花蓮縣萬榮鄉萬榮村１鄰１６號,121.4092,23.71558,(03)8751651,羅氏家用新冠病毒抗原自我檢測套組,124,2022/10/25 10:13:02,快篩試劑代售時間：週一至週五下午2點至下午4點，販售為止。
2345130012,花蓮縣卓溪鄉衛生所,花蓮縣卓溪鄉卓溪村中正路６５號,121.3033,23.33294,(03)8882592,羅氏家用新冠病毒抗原自我檢測套組,77,2022/10/25 10:13:02,快篩試劑代售時間：週一至週五上午8：30-11：00（售完即結束），另巡迴醫療時段少量販售。
2346020015,台東縣成功鎮衛生所,臺東縣成功鎮忠仁里中山東路６４號,121.3789,23.10003,(089)851419,羅氏家用新冠病毒抗原自我檢測套組,153,2022/10/25 10:13:02,5月7日上午8:30發號碼牌9:00開賣
2346030011,臺東縣關山鎮衛生所,臺東縣關山鎮中福里中華路７８號,121.1639,23.04957,(089)811042,羅氏家用新冠病毒抗原自我檢測套組,202,2022/10/25 10:13:02,週三上午幼兒預防接種、週二上午及週四上午遠距醫療門診
2346040017,台東縣卑南鄉衛生所,臺東縣卑南鄉太平村和平路１３２號,121.0881,22.78207,(089)382042,羅氏家用新冠病毒抗原自我檢測套組,109,2022/10/25 10:13:02,無
2346050013,臺東縣大武鄉衛生所,臺東縣大武鄉大武村復興路２－２號,120.9078,22.36414,(089)791143,羅氏家用新冠病毒抗原自我檢測套組,68,2022/10/25 10:13:02,24小時急診服務（急診無販售快篩試劑）
2346070015,臺東縣東河鄉衛生所,臺東縣東河鄉東河村南東河路１０鄰３００號,121.3031,22.96846,(089)896289,羅氏家用新冠病毒抗原自我檢測套組,187,2022/10/25 10:13:02,快篩試劑販售時間:◆平日（星期一三四五）上午8:30-10:30時販售，星期二下午13-15時販售售完為止。
2346110014,台東縣綠島鄉衛生所,臺東縣綠島鄉中寮村１－１號,121.4696,22.67319,(089)672511,羅氏家用新冠病毒抗原自我檢測套組,125,2022/10/25 10:13:02,家用快篩實名制，販售時段為08:30至12:00（周一至周五，遇國定假日暫停）
2346120010,臺東縣延平鄉衛生所,臺東縣延平鄉桃源村昇平路１１號,121.0855,22.90217,(089)561358,羅氏家用新冠病毒抗原自我檢測套組,67,2022/10/25 10:13:02,星期一至星期五上午8:30-11:00下午13:30-16:00販售快篩試劑，遇國定假日休息
2346130016,臺東縣海端鄉衛生所,臺東縣海端鄉海端村３鄰２９號,121.1767,23.10094,(089)931391,羅氏家用新冠病毒抗原自我檢測套組,380,2022/10/25 10:13:02,星期一至星期五家用快篩試劑販售時間上午8點~9點（售完為止）
2346140012,臺東縣達仁鄉衛生所,臺東縣達仁鄉安朔村復興路１２２號,120.8836,22.29488,(089)702209,羅氏家用新冠病毒抗原自我檢測套組,12,2022/10/25 10:13:02,9／9休診
2346150018,台東縣金峰鄉衛生所,臺東縣金峰鄉賓茂村１鄰１４號,120.9606,22.53248,(089)772201,羅氏家用新冠病毒抗原自我檢測套組,120,2022/10/25 10:13:02,快篩試劑販售時間為星期一至五，8:30~17:00
2346160014,台東縣蘭嶼鄉衛生所,臺東縣蘭嶼鄉紅頭村３６號,121.5546,22.02493,(089)732575,羅氏家用新冠病毒抗原自我檢測套組,73,2022/10/25 10:13:02,販售快篩時間 星期一至星期五 8:30~12:00 13:30~17:30
2390040518,金門縣金寧鄉衛生所,金門縣金寧鄉盤山村仁愛新屯２之１號,118.3374,24.44479,(082)325735,羅氏家用新冠病毒抗原自我檢測套組,177,2022/10/25 10:13:02,購買快篩實名制週一至週五上班日上午8:00開始依序販售，售完即止
2390050032,金門縣烈嶼鄉衛生所,金門縣烈嶼鄉西口村西方６－５號,118.2395,24.43519,(082)362078,羅氏家用新冠病毒抗原自我檢測套組,162,2022/10/25 10:13:02,門診時間:周一至周五上午8點至12點 中秋節休診
2391020010,連江縣北竿鄉衛生所,連江縣北竿鄉塘岐村２８１－６號,119.9991,26.22617,(083)655592,羅氏家用新冠病毒抗原自我檢測套組,100,2022/10/25 10:13:02,新冠快篩試劑販售於週一至周六每日上午08:30-12:00開放購買。
2391030016,連江縣莒光鄉西莒衛生所,連江縣莒光鄉青帆村１４－１號,119.9331,25.97157,(083)689122,羅氏家用新冠病毒抗原自我檢測套組,408,2022/10/25 10:13:02,防疫口罩星期一至五09:00-17:00、（六）09:00-12:00現場購買
2391030026,連江縣莒光鄉東莒衛生所,連江縣莒光鄉大坪村３０－１號,119.9731,25.96113,(083)689038,羅氏家用新冠病毒抗原自我檢測套組,400,2022/10/25 10:13:02,防疫口罩星期一至星期日上午10:00-12:00收取健保卡，下午3:30至本所領取口罩。
2391040012,連江縣東引鄉衛生所,連江縣東引鄉中柳村１２３號,120.4904,26.36701,(083)677206,羅氏家用新冠病毒抗原自我檢測套組,83,2022/10/25 10:13:02,防疫口罩每日08:30-09:30現場購買
5901010076,榮星藥局,臺北市松山區南京東路４段１３３巷５弄１號,121.5552,25.05214,(02)27124696,羅氏家用新冠病毒抗原自我檢測套組,104,2022/10/25 10:13:02,無
5901010094,明一藥局,臺北市松山區南京東路５段５９巷２８弄２５號１樓,121.5582,25.0527,(02)27691654,羅氏家用新冠病毒抗原自我檢測套組,46,2022/10/25 10:13:02,AM10: ~~PM9:00
5901010165,傑安藥局,臺北市松山區八德路２段４３７巷７弄８號１樓,121.5473,25.04914,(02)27524155,羅氏家用新冠病毒抗原自我檢測套組,101,2022/10/25 10:13:02,9:30開始發號碼牌
5901010174,仁弘藥局,臺北市松山區民生東路３段１１３巷２５弄６號１樓,121.5466,25.05948,(02)27136764,羅氏家用新冠病毒抗原自我檢測套組,158,2022/10/25 10:13:02,早上九點開始發放快篩.
5901010192,益華藥局,臺北市松山區民生東路５段１３８巷６號,121.5615,25.05827,(02)27624898,羅氏家用新冠病毒抗原自我檢測套組,125,2022/10/25 10:13:02,無
5901010272,德靈藥局,臺北市松山區富錦街５４８號,121.5667,25.06178,(02)27646998,羅氏家用新冠病毒抗原自我檢測套組,43,2022/10/25 10:13:02,週日休
5901010290,健全藥局,臺北市松山區民權東路３段１０３巷２０號,121.5449,25.06327,(02)27128293,羅氏家用新冠病毒抗原自我檢測套組,93,2022/10/25 10:13:02,無
5901010496,瑞昌大藥局,臺北市松山區民權東路３段１０３巷１０號,121.5449,25.06298,(02)27151881,羅氏家用新冠病毒抗原自我檢測套組,142,2022/10/25 10:13:02,無
5901010576,合生藥局,臺北市松山區南京東路５段１２３巷４５號１樓,121.5607,25.05364,(02)27602932,羅氏家用新冠病毒抗原自我檢測套組,434,2022/10/25 10:13:02,無
5901011975,萬泰藥局,臺北市松山區敦化北路２２２巷３８號,121.5471,25.05994,(02)27135891,羅氏家用新冠病毒抗原自我檢測套組,195,2022/10/25 10:13:02,每日早上9.00販售快篩試劑
5901012203,博荃藥局,臺北市松山區敦化北路４巷５１號,121.5447,25.05006,(02)27316736,羅氏家用新冠病毒抗原自我檢測套組,80,2022/10/25 10:13:02,防疫快篩營業時間攜帶健保皆可銷售，星期日及連續假期公休 !
5901012409,家音藥局,臺北市松山區民生東路５段７３號,121.5585,25.05871,(02)37652080,羅氏家用新冠病毒抗原自我檢測套組,120,2022/10/25 10:13:02,實名制快篩販售時段公告，請追蹤美康健保藥局 家音店 FB粉絲頁，謝謝~
5901012516,惠登藥局,臺北市松山區民生東路３段１３０巷３４號,121.5461,25.0562,(02)25472432,羅氏家用新冠病毒抗原自我檢測套組,93,2022/10/25 10:13:02,實名制快篩週一到週五下午2點販售
5901012561,松田藥局,臺北市松山區延吉街９－６號,121.5536,25.04701,(02)25798005,羅氏家用新冠病毒抗原自我檢測套組,170,2022/10/25 10:13:02,每日上午9:30開始實名制快篩販售
5901012570,予志藥局,臺北市松山區富錦街５２１號,121.5649,25.06119,(02)27623522,羅氏家用新冠病毒抗原自我檢測套組,97,2022/10/25 10:13:02,實名制快篩每天下午2點起開始販售，不分單雙號
5901012598,婕登藥局,臺北市松山區八德路４段６９９號,121.5766,25.05021,(02)27482893,羅氏家用新冠病毒抗原自我檢測套組,59,2022/10/25 10:13:02,無
5901012632,晨安藥局,臺北市松山區八德路３段１５５巷２０弄２號,121.5553,25.04914,(02)25798460,羅氏家用新冠病毒抗原自我檢測套組,48,2022/10/25 10:13:02,快篩實名制販售時間:平日下午3點-假日下午1點；現場販售，不抽號碼牌。端午連假，不販售快篩。
5901012650,銘德藥局,臺北市松山區八德路２段３６６巷２８號,121.5459,25.04724,(02)27511833,羅氏家用新冠病毒抗原自我檢測套組,67,2022/10/25 10:13:02,實名制快篩早上十點開始販售，星期天販售時間另行公告
5901012712,立康大藥局,臺北市松山區八德路四段２－１號,121.5581,25.04812,(02)27471749,羅氏家用新冠病毒抗原自我檢測套組,281,2022/10/25 10:13:02,快篩時間：全時段供應，不分單雙號
5901012749,躍獅松和藥局,臺北市松山區八德路四段６６６－１號,121.5761,25.04979,(02)27492569,羅氏家用新冠病毒抗原自我檢測套組,101,2022/10/25 10:13:02,實名制快篩販售時段，每日下午4點販售，售完為止
5901012758,京東藥局,臺北市松山區南京東路五段２７２號,121.5669,25.05114,(02)27679503,羅氏家用新冠病毒抗原自我檢測套組,262,2022/10/25 10:13:02,依每日到貨狀況， 每日下午1點發放實名制快篩
5901012767,晨新藥局,臺北市松山區八德路４段９１巷１－１號,121.5608,25.04894,(02)27422951,羅氏家用新冠病毒抗原自我檢測套組,109,2022/10/25 10:13:02,無
5901012918,躍獅京華藥局,臺北市松山區南京東路５段７１號,121.5596,25.05172,(02)27666508,羅氏家用新冠病毒抗原自我檢測套組,381,2022/10/25 10:13:02,實名制快篩販售時間：每日營業時間09:00-22:00皆有販售
5901012963,綠之家藥局,臺北市松山區延壽街４２８號,121.5562,25.0562,(02)25289595,羅氏家用新冠病毒抗原自我檢測套組,180,2022/10/25 10:13:02,禮拜日不販售快篩
5901013095,康采藥局,臺北市松山區南京東路５段２９１巷１７－２號,121.5663,25.05236,(02)27670271,羅氏家用新冠病毒抗原自我檢測套組,2285,2022/10/25 10:13:02,10／9和10／23公休
5901013148,唯康藥局,臺北市松山區八德路３段２１１號,121.5566,25.0482,(02)25775000,羅氏家用新冠病毒抗原自我檢測套組,121,2022/10/25 10:13:02,無
5901013175,台北長庚維康藥局,臺北市松山區敦化北路１９９巷２弄５號１樓,121.55,25.05563,(02)27199386,羅氏家用新冠病毒抗原自我檢測套組,45,2022/10/25 10:13:02,無
5901013200,專品南京藥局,臺北市松山區南京東路４段７３號,121.5532,25.05185,(02)25147685,羅氏家用新冠病毒抗原自我檢測套組,209,2022/10/25 10:13:02,無
5901013308,立赫敦北藥局,臺北市松山區敦化北路２２２巷２０號,121.5477,25.05945,(02)27199277,羅氏家用新冠病毒抗原自我檢測套組,59,2022/10/25 10:13:02,10／8及10／9營業時間為12:00-20:00
5901013362,啄木鳥藥局,臺北市松山區八德路４段２０９號、２１１號（１、２層）,121.564,25.04894,(02)27422413,羅氏家用新冠病毒抗原自我檢測套組,316,2022/10/25 10:13:02,每日早上10點開始販售實名制快篩
5901013371,玖田藥局,臺北市松山區八德路４段６５５號,121.5755,25.05018,(02)27666578,羅氏家用新冠病毒抗原自我檢測套組,10,2022/10/25 10:13:02,Line：@ahh3248m
5901013380,澄馨藥局,臺北市松山區三民路３７號,121.5635,25.0558,(02)27420159,羅氏家用新冠病毒抗原自我檢測套組,241,2022/10/25 10:13:02,無
5901013399,一安正昇藥局,臺北市松山區南京東路５段３０９號,121.5667,25.05155,(02)27680993,羅氏家用新冠病毒抗原自我檢測套組,91,2022/10/25 10:13:02,無
5901013451,新德大藥局,臺北市松山區饒河街２０４號,121.577,25.05074,(02)27673402,羅氏家用新冠病毒抗原自我檢測套組,153,2022/10/25 10:13:02,周一至周六上午九點開賣；快篩實名制（周日休息）
5901013504,杏一台北長庚藥局,臺北市松山區敦化北路１９９巷２弄３號,121.55,25.05569,(02)25149463,羅氏家用新冠病毒抗原自我檢測套組,186,2022/10/25 10:13:02,無
5901013513,立赫民生藥局,臺北市松山區民生東路４段７２號,121.5524,25.05787,(02)27139200,羅氏家用新冠病毒抗原自我檢測套組,403,2022/10/25 10:13:02,週一至週六上午09:30開始販售實名制快篩；週日中午12:00開始販售
5901013586,安禾大藥局,臺北市松山區撫遠街３８２號,121.5656,25.06443,(02)27602952,羅氏家用新冠病毒抗原自我檢測套組,29,2022/10/25 10:13:02,無
5901013648,慶昌藥局,臺北市松山區延吉街２９號１樓,121.5537,25.04595,(02)25770820,羅氏家用新冠病毒抗原自我檢測套組,78,2022/10/25 10:13:02,下午14:00開始發放
5901013657,順儷中崙藥局,臺北市松山區八德路３段７４巷４８號１樓,121.5525,25.04685,(02)25796900,羅氏家用新冠病毒抗原自我檢測套組,560,2022/10/25 10:13:02,無
5901013693,民生盛康藥局,臺北市松山區民生東路５段２０４號１樓,121.5648,25.05826,(02)27460758,羅氏家用新冠病毒抗原自我檢測套組,405,2022/10/25 10:13:02,星期日不提供快篩服務，一到六可以來領取，但有沒有快篩全憑運氣，見諒
5901013700,杏一台北台安藥局,臺北市松山區八德路２段３９９號１樓,121.5465,25.04833,(02)87728295,羅氏家用新冠病毒抗原自我檢測套組,167,2022/10/25 10:13:02,快篩實名制販售時間為每天下午15:00，開賣前10分鐘發放號碼牌，售完為止
5901013728,康麗藥局,臺北市松山區南京東路３段３０３巷２０號（１樓）,121.5468,25.05374,(02)27174117,羅氏家用新冠病毒抗原自我檢測套組,90,2022/10/25 10:13:02,無
5901013746,富景藥局,臺北市松山區三民路１４５號１樓,121.5631,25.06078,(02)27455666,羅氏家用新冠病毒抗原自我檢測套組,275,2022/10/25 10:13:02,無
5901020303,宏恩藥局,臺北市大安區大安路１段１８１號,121.5461,25.03619,(02)27000956,羅氏家用新冠病毒抗原自我檢測套組,209,2022/10/25 10:13:02,隨到隨買。符合免費領用資格者，亦歡迎領取。另供應自費 唾液快篩，歡迎洽詢。
5901020376,靜園藥局,臺北市大安區和平東路２段１１８巷５７之１號,121.5429,25.02254,(02)27336390,羅氏家用新冠病毒抗原自我檢測套組,134,2022/10/25 10:13:02,實名制快篩每日下午2:00開始代售，售完為止
5901020385,延吉大藥局,臺北市大安區延吉街１５３號１樓,121.5548,25.04066,(02)27819227,羅氏家用新冠病毒抗原自我檢測套組,197,2022/10/25 10:13:02,無
5901020554,師大藥局,臺北市大安區師大路９９號１樓,121.5285,25.02271,(02)23623479,羅氏家用新冠病毒抗原自我檢測套組,87,2022/10/25 10:13:02,實名制快篩試劑開賣時間下午2:30現場排隊
5901020563,施寶藥局,臺北市大安區安東街５０－５號１樓,121.5426,25.04277,(02)27114175,羅氏家用新冠病毒抗原自我檢測套組,82,2022/10/25 10:13:02,週一至週五早上11點到下午8點.周六周日及公訂例假日公休快篩早上11點開始銷售直到配額售完為止
5901020616,龍護大藥局,臺北市大安區大安路１段２２４巷７號１Ｆ,121.5454,25.03401,(02)23250686,羅氏家用新冠病毒抗原自我檢測套組,28,2022/10/25 10:13:02,無
5901020634,新廣生藥局,臺北市大安區仁愛路４段３４號,121.5467,25.03762,(02)27071221,羅氏家用新冠病毒抗原自我檢測套組,32,2022/10/25 10:13:02,固定周日公休，實名制快篩因應政府滾動式配送，實際發放時間以現場為主
5901020661,泰佑藥局,臺北市大安區安和路２段７２號１Ｆ,121.5517,25.03011,(02)27056841,羅氏家用新冠病毒抗原自我檢測套組,197,2022/10/25 10:13:02,每日早上九點半
5901020689,四維藥局,臺北市大安區復興南路２段１５１巷４３號１樓,121.5454,25.02846,(02)27094222,羅氏家用新冠病毒抗原自我檢測套組,197,2022/10/25 10:13:02,假日可先打電話聯絡
5901020732,赫慶藥局,臺北市大安區瑞安街２０８巷１１弄５號１樓,121.5408,25.02866,(02)27063497,羅氏家用新冠病毒抗原自我檢測套組,464,2022/10/25 10:13:02,快篩代售時間：星期一至六上午9點開始，不發號碼牌，星期日停售
5901020858,順天堂藥局,臺北市大安區龍泉街９６號,121.5292,25.02256,(02)23627149,羅氏家用新冠病毒抗原自我檢測套組,299,2022/10/25 10:13:02,營業時間:周一至周六9:30~22:00 禮拜日公休
5901020876,大興藥局,臺北市大安區通化街３９巷５０弄１５號１樓,121.5555,25.03056,(02)27053369,羅氏家用新冠病毒抗原自我檢測套組,333,2022/10/25 10:13:02,快篩試劑販售時間自08:30至20:30。（週日休息）
5901021248,永誠藥局,臺北市大安區忠孝東路４段２１６巷２５之１號,121.5531,25.03997,(02)27520273,羅氏家用新冠病毒抗原自我檢測套組,88,2022/10/25 10:13:02,上午9:30發放（不發號碼牌）
5901021382,建如藥局,臺北市大安區和平東路３段２２８巷１１號１Ｆ,121.5543,25.02174,(02)27331456,羅氏家用新冠病毒抗原自我檢測套組,208,2022/10/25 10:13:02,9:00開門營業後.開始作業領取快篩 星期日休息
5901021408,生百藥局,臺北市大安區臨江街１２４號,121.5539,25.03024,(02)27371011,羅氏家用新冠病毒抗原自我檢測套組,58,2022/10/25 10:13:02,無
5901022601,生光藥局,臺北市大安區忠孝東路３段２４８巷２號,121.5412,25.04135,(02)27780862,羅氏家用新冠病毒抗原自我檢測套組,55,2022/10/25 10:13:02,下午兩點開始販售，周日及國定假日公休
5901022898,永康藥局,臺北市大安區麗水街６之２號,121.529,25.03289,(02)23279362,羅氏家用新冠病毒抗原自我檢測套組,221,2022/10/25 10:13:02,無
5901023073,世中欣藥局,臺北市大安區永康街２巷８號,121.5294,25.03315,(02)23938947,羅氏家用新冠病毒抗原自我檢測套組,37,2022/10/25 10:13:02,健保快篩：周一至周五， 早上10點開始販售。週六下午2點販售。週日停售.。
5901023215,大愛健康藥局,臺北市大安區敦化南路２段６３巷６５號,121.552,25.03103,(02)27092156,羅氏家用新冠病毒抗原自我檢測套組,118,2022/10/25 10:13:02,無
5901023304,麗樺藥師藥局,臺北市大安區麗水街３號,121.529,25.03225,(02)23952628,羅氏家用新冠病毒抗原自我檢測套組,54,2022/10/25 10:13:02,無
5901023313,安和藥局,臺北市大安區安和路１段１０２巷３號,121.5519,25.03433,(02)27092349,羅氏家用新冠病毒抗原自我檢測套組,109,2022/10/25 10:13:02,平日下午三點開始販賣賣完 78份結束
5901023331,佑安藥局,臺北市大安區延吉街２３３巷９號,121.5561,25.03708,(02)27069339,羅氏家用新冠病毒抗原自我檢測套組,63,2022/10/25 10:13:02,營業時間為下午兩點開始，週六不賣快篩
5901023386,弘昇藥局,臺北市大安區復興南路１段１０７巷３２號,121.5458,25.04349,(02)27110061,羅氏家用新冠病毒抗原自我檢測套組,167,2022/10/25 10:13:02,上午11點以後至晚上10點30分
5901023411,長虹藥局,臺北市大安區忠孝東路４段２１６巷 ６３號,121.5531,25.0382,(02)27210232,羅氏家用新冠病毒抗原自我檢測套組,168,2022/10/25 10:13:02,週一 ~ 週日 14:30 販售實名制快篩（a）現場排隊依序購買（b）開賣前10分鐘發號碼牌（c）過號請重新排隊
5901023519,惠盈藥局,臺北市大安區辛亥路２段１７１巷３１號,121.5412,25.02297,(02)87321366,羅氏家用新冠病毒抗原自我檢測套組,171,2022/10/25 10:13:02,無
5901023680,新富川藥局,臺北市大安區大安路１段５１巷４號,121.5464,25.04303,(02)27114758,羅氏家用新冠病毒抗原自我檢測套組,48,2022/10/25 10:13:02,無提供急診服務
5901023831,康乃馨藥局,臺北市大安區建國南路１段３２７號,121.5382,25.03481,(02)23257097,羅氏家用新冠病毒抗原自我檢測套組,34,2022/10/25 10:13:02,週一至週五09:00-21:00，周六09:00-18:00；快篩代售、現場排隊
5901023902,惠良藥局,臺北市大安區和平東路３段９３－１號,121.5507,25.02461,(02)27387872,羅氏家用新冠病毒抗原自我檢測套組,159,2022/10/25 10:13:02,平日早上10點開賣實名快篩  週日休息
5901024007,古亭健康人生藥局,臺北市大安區羅斯福路２段８３號,121.5237,25.02572,(02)23660895,羅氏家用新冠病毒抗原自我檢測套組,78,2022/10/25 10:13:02,快篩僅販售14:00-16:00。營業時間9:30-21:30。
5901024098,杏一瑞安藥局,臺北市大安區瑞安街２０８巷１１弄１號,121.5406,25.02866,(02)27096710,羅氏家用新冠病毒抗原自我檢測套組,3,2022/10/25 10:13:02,快篩滯銷，直接來店，不用打電話問
5901024114,好安心藥局,臺北市大安區和平東路２段９８之２號,121.5415,25.02493,(02)23772166,羅氏家用新冠病毒抗原自我檢測套組,351,2022/10/25 10:13:02,快篩發放: 週一至週六販售，免排隊，不發號碼牌。
5901024178,誠心藥局,臺北市大安區忠孝東路３段１９９－１號,121.5389,25.04188,(02)27527520,羅氏家用新冠病毒抗原自我檢測套組,360,2022/10/25 10:13:02,全年無休 0830-2230
5901024221,安居藥局,臺北市大安區安居街１９號,121.5549,25.02085,(02)23773537,羅氏家用新冠病毒抗原自我檢測套組,127,2022/10/25 10:13:02,領快篩注意事項:週一到週六早上8:30-12:00 週一到週五晚上5:30-9:00 直接排隊購買 .週日不營業
5901024310,躍獅新生藥局,臺北市大安區和平東路２段２０號,121.5362,25.02566,(02)23623367,羅氏家用新冠病毒抗原自我檢測套組,160,2022/10/25 10:13:02,快篩發放時間0900-1800。星期一到星期日皆販售
5901024347,博大藥局,臺北市大安區安和路２段６５號,121.5526,25.03063,(02)27027858,羅氏家用新冠病毒抗原自我檢測套組,170,2022/10/25 10:13:02,若有配給．下午兩點開始販售。
5901024427,博昱仁愛藥局,臺北市大安區仁愛路４段６５號,121.5469,25.03821,(02)87739258,羅氏家用新冠病毒抗原自我檢測套組,227,2022/10/25 10:13:02,實名制快篩每周一~五，上午9點開賣.售完為止.婉謝零錢
5901024481,微笑藥師藥局,臺北市大安區信義路３段３１巷４號,121.5345,25.03401,(02)27009655,羅氏家用新冠病毒抗原自我檢測套組,607,2022/10/25 10:13:02,無
5901024490,明星大藥局,臺北市大安區光復南路４３０之１號,121.5574,25.03618,(02)27023747,羅氏家用新冠病毒抗原自我檢測套組,185,2022/10/25 10:13:02,無
5901024525,國泰維康藥局,臺北市大安區仁愛路４段２６６巷１５弄２０號,121.5541,25.03654,(02)27542185,羅氏家用新冠病毒抗原自我檢測套組,94,2022/10/25 10:13:02,星期一到星期日下午3點到5點販賣實名制快篩（不發號碼牌）
5901024543,奇威藥局,臺北市大安區雲和街９３號,121.5312,25.02338,(02)23651110,羅氏家用新冠病毒抗原自我檢測套組,223,2022/10/25 10:13:02,無
5901024669,百岳藥局,臺北市大安區和平東路２段３１１巷１１號,121.5452,25.02514,(02)27551037,羅氏家用新冠病毒抗原自我檢測套組,84,2022/10/25 10:13:02,快篩試劑販售時間:周一至周五10:30~12:00止
5901024678,大安健康人生藥局,臺北市大安區信義路４段３４號,121.5447,25.03316,(02)27025553,羅氏家用新冠病毒抗原自我檢測套組,28,2022/10/25 10:13:02,快篩發放時間:下午3點開始.並依序入場購買，請協助自備紙鈔
5901024687,博昱大藥局,臺北市大安區樂業街１４８號、１５０號,121.5529,25.01998,(02)23776199,羅氏家用新冠病毒抗原自我檢測套組,268,2022/10/25 10:13:02,快篩發放時間為周一至周六09-12&18-21
5901024696,仁華藥局,臺北市大安區臥龍街１５５號,121.5511,25.01834,(02)27336762,羅氏家用新冠病毒抗原自我檢測套組,155,2022/10/25 10:13:02,快篩實名制 :上午09:00開始，不發號碼牌
5901024721,麗泰藥局,臺北市大安區復興南路２段１５１巷４號,121.544,25.02832,(02)27079595,羅氏家用新冠病毒抗原自我檢測套組,124,2022/10/25 10:13:02,每天到貨時間不定，到貨後即公告開賣
5901024767,杏一樂業藥局,臺北市大安區樂業街１６２號,121.5535,25.01958,(02)27383194,羅氏家用新冠病毒抗原自我檢測套組,156,2022/10/25 10:13:02,無
5901024838,昶青藥局,臺北市大安區濟南路３段２２之１號,121.5346,25.04008,(02)27515678,羅氏家用新冠病毒抗原自我檢測套組,124,2022/10/25 10:13:02,每天販售快篩實名制
5901024865,沛林東區生活藥粧藥局,臺北市大安區忠孝東路４段１８１巷７弄５號,121.551,25.04219,(02)27763759,羅氏家用新冠病毒抗原自我檢測套組,60,2022/10/25 10:13:02,每日早上11:00營業，若快篩有到貨，每日發放時間為下午2:00開始
5901024918,康祥藥局,臺北市大安區忠孝東路４段２１６巷２１號,121.5531,25.04025,(02)27817891,羅氏家用新冠病毒抗原自我檢測套組,249,2022/10/25 10:13:02,星期天11:00-19:00
5901024945,威康藥局,臺北市大安區和平東路２段２９７號,121.5447,25.02495,(02)27061149,羅氏家用新冠病毒抗原自我檢測套組,8,2022/10/25 10:13:02,無
5901024954,佑全大安敦南藥局,臺北市大安區敦化南路２段６３巷４６號,121.5512,25.03089,(02)23257579,羅氏家用新冠病毒抗原自我檢測套組,62,2022/10/25 10:13:02,實名制快篩賣到1900
5901024981,專品六張犁藥局,臺北市大安區基隆路２段２１７號１樓,121.5513,25.02299,(02)87322226,羅氏家用新冠病毒抗原自我檢測套組,68,2022/10/25 10:13:02,兒童免費領取快篩於下午3點開始發放
5901025004,早安藥局,臺北市大安區建國南路２段１５１巷４２號１樓,121.5396,25.02865,(02)27002209,羅氏家用新冠病毒抗原自我檢測套組,54,2022/10/25 10:13:02,快篩早上9點發號碼牌留卡下午2點領取
5901025013,頤品中西藥局,臺北市大安區浦城街２４之２號１樓,121.5267,25.02295,(02)23685656,羅氏家用新冠病毒抗原自我檢測套組,101,2022/10/25 10:13:02,無
5901025022,躍獅敦和藥局,臺北市大安區和平東路３段１０號,121.547,25.02453,(02)23785767,羅氏家用新冠病毒抗原自我檢測套組,120,2022/10/25 10:13:02,無
5901025031,中力信義藥局,臺北市大安區信義路４段５１號（１樓）,121.545,25.03354,(02)23250266,羅氏家用新冠病毒抗原自我檢測套組,212,2022/10/25 10:13:02,下午一點販售實名制快篩
5901025040,弘昌藥局,臺北市大安區通化街１３９號１樓,121.554,25.02901,(02)27321616,羅氏家用新冠病毒抗原自我檢測套組,78,2022/10/25 10:13:02,10／9和10／10公休
5901025059,博醫仁愛藥局,臺北市大安區仁愛路４段８巷２號１樓,121.5443,25.0375,(02)27019107,羅氏家用新冠病毒抗原自我檢測套組,124,2022/10/25 10:13:02,營業時間 : 每天早上08:00~晚上22:00
5901025068,鎮安中西安和藥局,臺北市大安區安和路１段１２３號１樓,121.5527,25.03488,(02)27015201,羅氏家用新冠病毒抗原自我檢測套組,315,2022/10/25 10:13:02,快篩試劑於每日9點開賣
5901025077,敦南春天藥局,臺北市大安區敦化南路２段８１巷６３號１樓,121.5513,25.03002,(02)27553266,羅氏家用新冠病毒抗原自我檢測套組,95,2022/10/25 10:13:02,快篩待售時間:週一至週日0900~2030，售完為止。（物流配送不及則例外，以門市公告為主）
5901090074,慈仁藥局,臺北市大同區歸綏街２６１號１樓,121.5101,25.05832,(02)25572733,羅氏家用新冠病毒抗原自我檢測套組,183,2022/10/25 10:13:02,平日營業至晚上6點，星期六營業至下午2點，星期日公休
5901090127,三銘大藥局,臺北市大同區迪化街１段８０號,121.5099,25.05581,(02)25583392,羅氏家用新冠病毒抗原自我檢測套組,118,2022/10/25 10:13:02,無
5901090154,柯藥局,臺北市大同區重慶北路３段３３５巷６號,121.5144,25.07452,(02)25948515,羅氏家用新冠病毒抗原自我檢測套組,882,2022/10/25 10:13:02,库存已零如何歸零
5901090181,時春藥局,臺北市大同區赤峰街４號,121.5191,25.05356,(02)25597918,羅氏家用新冠病毒抗原自我檢測套組,170,2022/10/25 10:13:02,上午9點發號碼牌
5901090243,建祥藥局,臺北市大同區寧夏路１７號、１７－１號,121.515,25.05485,(02)25556476,羅氏家用新冠病毒抗原自我檢測套組,154,2022/10/25 10:13:02,10：00~18：00
5901090289,正利民藥局,臺北市大同區延平北路３段１０５號,121.511,25.06806,(02)25924842,羅氏家用新冠病毒抗原自我檢測套組,16,2022/10/25 10:13:02,每日皆可領快篩劑，每日下午2:00~4:00休息.
5901090323,泰元藥局,臺北市大同區哈密街９１號,121.5146,25.07303,(02)25914592,羅氏家用新冠病毒抗原自我檢測套組,87,2022/10/25 10:13:02,無
5901090341,正中藥局,臺北市大同區民族西路２１３號,121.5142,25.06874,(02)25976937,羅氏家用新冠病毒抗原自我檢測套組,85,2022/10/25 10:13:02,無
5901090369,保慶藥局,臺北市大同區保安街２１號,121.5129,25.05926,(02)25538988,羅氏家用新冠病毒抗原自我檢測套組,250,2022/10/25 10:13:02,因到貨時間不定，視到貨時間販售
5901091473,快安藥局,臺北市大同區南京西路２８２、２８４號,121.5146,25.05349,(02)25561925,羅氏家用新冠病毒抗原自我檢測套組,442,2022/10/25 10:13:02,無
5901091544,得意藥師藥局,臺北市大同區延平北路２段２２９號,121.5115,25.06029,(02)25534294,羅氏家用新冠病毒抗原自我檢測套組,4,2022/10/25 10:13:02,無
5901091624,健康美藥局,臺北市大同區民族西路１６５號,121.5155,25.06872,(02)25976707,羅氏家用新冠病毒抗原自我檢測套組,364,2022/10/25 10:13:02,快篩:星期一~星期六:AM::09:00
5901091688,宏泰藥師藥局,臺北市大同區酒泉街１３１號,121.5145,25.07213,(02)25957025,羅氏家用新冠病毒抗原自我檢測套組,180,2022/10/25 10:13:02,週一至週五9:30-22:00。週日14:00-22:00※快篩發放號碼牌時間為14:30，發完為止。
5901091759,儷安藥局,臺北市大同區錦西街５３巷１６號,121.5158,25.06065,(02)25578033,羅氏家用新冠病毒抗原自我檢測套組,327,2022/10/25 10:13:02,販售快篩試劑時間 : 週一至週六上午10點到下午6點
5901091820,富康藥局,臺北市大同區延平北路２段１２６號,121.5115,25.05733,(02)25537782,羅氏家用新冠病毒抗原自我檢測套組,99,2022/10/25 10:13:02,代售快篩早上9:00開始售完為止
5901091857,佳禾藥局,臺北市大同區大龍街２６２號,121.5158,25.07061,(02)25953806,羅氏家用新冠病毒抗原自我檢測套組,128,2022/10/25 10:13:02,無
5901091884,躍獅雙蓮藥局,臺北市大同區涼州街４號,121.5147,25.06078,(02)25537551,羅氏家用新冠病毒抗原自我檢測套組,180,2022/10/25 10:13:02,實名制快篩：週一～五 下午３:00開賣 （週六停售）
5901092014,旭豐藥局,臺北市大同區昌吉街９６號,121.5151,25.06582,(02)25853880,羅氏家用新冠病毒抗原自我檢測套組,216,2022/10/25 10:13:02,無
5901092069,躍獅遠東藥局,臺北市大同區延平北路２段１３１號（實際營業地址：１樓）,121.5116,25.05751,(02)25594835,羅氏家用新冠病毒抗原自我檢測套組,39,2022/10/25 10:13:02,實名制快篩販賣時間：下午2點~下午3點★若有剩下，晚上7點~晚上8點才賣★不發號碼牌★
5901092087,躍獅文昌藥局,臺北市大同區民生西路１０８號（實際營業：一層）,121.5197,25.0574,(02)25586189,羅氏家用新冠病毒抗原自我檢測套組,98,2022/10/25 10:13:02,無
5901092103,新聖安藥局,臺北市大同區昌吉街１３０號,121.5143,25.06584,(02)25977877,羅氏家用新冠病毒抗原自我檢測套組,39,2022/10/25 10:13:02,無
5901092112,酒泉春天藥局,臺北市大同區酒泉街９４號、９４號２樓,121.5146,25.07193,(02)25977932,羅氏家用新冠病毒抗原自我檢測套組,150,2022/10/25 10:13:02,無
5901092130,大同民生藥局,臺北市大同區民生西路１２８號１樓、２樓及１３０號１樓、２樓,121.5191,25.05734,(02)25558886,羅氏家用新冠病毒抗原自我檢測套組,39,2022/10/25 10:13:02,快篩實名制，每天16:00開始販售，售完為止。
5901092149,123宅藥局,臺北市大同區鄭州路１２３號（１樓）,121.5109,25.05033,(02)25588699,羅氏家用新冠病毒抗原自我檢測套組,45,2022/10/25 10:13:02,【家用快篩實名制】週一至週五14:30 開始販售 ； 週六、週日10:30 開始販售。★前十分鐘開始發放號碼牌
5901092158,慶福藥局,臺北市大同區南京西路２３３巷２號（１樓）,121.5104,25.05397,(02)25503628,羅氏家用新冠病毒抗原自我檢測套組,72,2022/10/25 10:13:02,無
5901100057,百源堂大藥局,臺北市中山區長安東路２段４７－５號,121.5322,25.04857,(02)25364362,羅氏家用新冠病毒抗原自我檢測套組,294,2022/10/25 10:13:02,週休二日營業日每日8點30分起至晚間七點
5901100066,名祥藥局,臺北市中山區龍江路１６６號,121.5403,25.05505,(02)25036265,羅氏家用新冠病毒抗原自我檢測套組,94,2022/10/25 10:13:02,實名制快篩代售時間為早上08:00＜售完為止＞
5901100155,大信藥局,臺北市中山區林森北路１５９巷６號,121.5255,25.0517,(02)25719080,羅氏家用新冠病毒抗原自我檢測套組,210,2022/10/25 10:13:02,無
5901100333,明美藥局,臺北市中山區長春路６９號,121.5266,25.05502,(02)25365419,羅氏家用新冠病毒抗原自我檢測套組,1,2022/10/25 10:13:02,口罩周一至周五，16:30-18:30販售
5901100342,順泰藥局,臺北市中山區錦州街２６６號,121.5348,25.06025,(02)25038916,羅氏家用新冠病毒抗原自我檢測套組,31,2022/10/25 10:13:02,無
5901100422,滿順藥局,臺北市中山區伊通街５４號１樓,121.5347,25.05145,(02)25075283,羅氏家用新冠病毒抗原自我檢測套組,202,2022/10/25 10:13:02,快篩服務時間 AM 8:30 起 售完為止
5901100431,長生藥局,臺北市中山區松江路３６２巷５５號１樓,121.5313,25.06207,(02)25816210,羅氏家用新冠病毒抗原自我檢測套組,196,2022/10/25 10:13:02,無
5901100440,優豐藥局,臺北市中山區民生東路１段３２號,121.5242,25.05794,(02)25602565,羅氏家用新冠病毒抗原自我檢測套組,241,2022/10/25 10:13:02,下午3點現場作業不分發號碼牌
5901100628,貢玄藥局,臺北市中山區錦州街２０７號,121.532,25.06039,(02)25637847,羅氏家用新冠病毒抗原自我檢測套組,19,2022/10/25 10:13:02,中午12點30分開始發號碼牌.下午1點領快篩.
5901100664,阿里藥局,臺北市中山區錦州街２５１號,121.5342,25.06039,(02)25020638,羅氏家用新冠病毒抗原自我檢測套組,231,2022/10/25 10:13:02,早上9:15開始營業.
5901100771,良佑藥局,臺北市中山區撫順街６－２號１樓,121.5216,25.06367,(02)25916402,羅氏家用新冠病毒抗原自我檢測套組,24,2022/10/25 10:13:02,無
5901101072,長青藥局,臺北市中山區興安街５５號１樓,121.5419,25.05621,(02)25053160,羅氏家用新冠病毒抗原自我檢測套組,157,2022/10/25 10:13:02,無
5901101161,晏晟藥局,臺北市中山區林森北路６２５號,121.5259,25.06703,(02)25851445,羅氏家用新冠病毒抗原自我檢測套組,84,2022/10/25 10:13:02,星期日固定休假
5901101205,大直藥局,臺北市中山區北安路６１７號１樓,121.5488,25.08273,(02)25320522,羅氏家用新冠病毒抗原自我檢測套組,222,2022/10/25 10:13:02,無
5901101250,美日藥局,臺北市中山區天津街６６號１樓,121.5233,25.05136,(02)25631662,羅氏家用新冠病毒抗原自我檢測套組,139,2022/10/25 10:13:02,實名制快篩於營業日下午4點開始發號碼牌
5901101321,文德藥局,臺北市中山區龍江路３５６巷１９號１樓,121.5401,25.06607,(02)25181178,羅氏家用新冠病毒抗原自我檢測套組,114,2022/10/25 10:13:02,無
5901101509,永直藥局,臺北市中山區北安路５９５巷２弄６號,121.5483,25.08192,(02)85098059,羅氏家用新冠病毒抗原自我檢測套組,52,2022/10/25 10:13:02,（現場販售）周一至周六下午2點到晚上8點，周日不販售
5901101536,展佑藥局,臺北市中山區長春路１４６－１號,121.5317,25.05473,(02)25232803,羅氏家用新冠病毒抗原自我檢測套組,140,2022/10/25 10:13:02,0-6歲幼童和65歲長者，可持健保卡免費領取快篩試劑，不分單雙號，隨到隨刷
5901101607,蓁榛健康生活藥局,臺北市中山區合江街１００－２號１樓,121.5391,25.05845,(02)25099333,羅氏家用新冠病毒抗原自我檢測套組,204,2022/10/25 10:13:02,實名制快篩每日（周一至周日）早上11:00開始販售
5901101652,祥泰藥局,臺北市中山區林森北路１３６號,121.5251,25.05142,(02)25313097,羅氏家用新冠病毒抗原自我檢測套組,181,2022/10/25 10:13:02,無
5901101910,嘉恩藥局,臺北市中山區錦州街３２１號,121.5385,25.06033,(02)25181418,羅氏家用新冠病毒抗原自我檢測套組,130,2022/10/25 10:13:02,週一至週六下午一點販售快篩試劑
5901101929,樂活苑藥局,臺北市中山區北安路５４６號１樓,121.548,25.08014,(02)25323296,羅氏家用新冠病毒抗原自我檢測套組,230,2022/10/25 10:13:02,實名制快篩代售時間為18:00~19:00.現場排隊，不發號碼牌.自備500元.
5901101992,大愛藥師藥局,臺北市中山區吉林路２５５號１樓,121.5304,25.06165,(02)25424723,羅氏家用新冠病毒抗原自我檢測套組,22,2022/10/25 10:13:02,週一~週日14:00至18:00發放快篩
5901102015,久大藥局,臺北市中山區林森北路４８０號,121.5255,25.06127,(02)25111594,羅氏家用新冠病毒抗原自我檢測套組,235,2022/10/25 10:13:02,即日起周一至周六下午1:00-4:00發快篩。 周日公休
5901102408,康林藥局,臺北市中山區興安街１０５號,121.5438,25.05617,(02)25171867,羅氏家用新冠病毒抗原自我檢測套組,58,2022/10/25 10:13:02,快篩販售時間：星期一到六早上9點，星期日下午2點
5901102444,啟美藥師藥局,臺北市中山區錦州街２８２號,121.5352,25.06024,(02)25178032,羅氏家用新冠病毒抗原自我檢測套組,53,2022/10/25 10:13:02,快篩 販售時間 20點開賣到21點，星期六日公休
5901102560,龍江藥局,臺北市中山區龍江路３５６巷１４號,121.5403,25.06591,(02)25023724,羅氏家用新冠病毒抗原自我檢測套組,23,2022/10/25 10:13:02,無
5901102579,躍獅晴光藥局,臺北市中山區農安街２３之２號,121.5245,25.06501,(02)25951393,羅氏家用新冠病毒抗原自我檢測套組,70,2022/10/25 10:13:02,實名制快篩販售時間17:00，售完會提前結束
5901102597,德惠藥局,臺北市中山區德惠街１２２號,121.53,25.06652,(02)25971131,羅氏家用新冠病毒抗原自我檢測套組,77,2022/10/25 10:13:02,每日下午3點30分開始販售快篩實名制
5901102631,金生藥局,臺北市中山區長安東路２段１６７－１號,121.5407,25.04843,(02)87729808,羅氏家用新冠病毒抗原自我檢測套組,238,2022/10/25 10:13:02,營業時間為週一~週五 09:00~21:00     週六09:00~14:00
5901102677,興康源藥局,臺北市中山區中山北路１段１４０巷８號,121.5214,25.05143,(02)25311248,羅氏家用新冠病毒抗原自我檢測套組,59,2022/10/25 10:13:02,無
5901102686,富宥康藥局,臺北市中山區北安路６０８巷５弄２２號,121.5496,25.08263,(02)25325277,羅氏家用新冠病毒抗原自我檢測套組,1,2022/10/25 10:13:02,無
5901102837,正傑健保藥局,臺北市中山區長安東路２段１８１號,121.5426,25.04839,(02)27310181,羅氏家用新冠病毒抗原自我檢測套組,144,2022/10/25 10:13:02,下午四點開始販售
5901102971,保德明水藥局,臺北市中山區北安路６０８巷４弄１號,121.5493,25.08191,(02)85097769,羅氏家用新冠病毒抗原自我檢測套組,212,2022/10/25 10:13:02,09:00-22:30 週一到週日 全年無休 都可購買或領取免費快篩
5901103110,大直健康藥局,臺北市中山區北安路５９１號,121.5486,25.08194,(02)25323310,羅氏家用新冠病毒抗原自我檢測套組,184,2022/10/25 10:13:02,販售時間:W1-W7:09:00-21:00
5901103147,娸淇藥局,臺北市中山區伊通街９５號,121.5349,25.05305,(02)25082762,羅氏家用新冠病毒抗原自我檢測套組,152,2022/10/25 10:13:02,口罩販售時間2:30PM（六日無發口罩）4／2-4／5 清明休息
5901103183,OK藥師藥局,臺北市中山區興安街９５號,121.5435,25.05615,(02)25170068,羅氏家用新冠病毒抗原自我檢測套組,590,2022/10/25 10:13:02,全年無休
5901103192,昶青林森藥局,臺北市中山區林森北路１１９巷５２號,121.5269,25.05018,(02)25639939,羅氏家用新冠病毒抗原自我檢測套組,92,2022/10/25 10:13:02,實名制快篩每日14:00開始販售，20:00結束或售完為止，週日人力不足不發售
5901103209,麗恩藥局,臺北市中山區林森北路５７５之５號,121.5258,25.0653,(02)25981982,羅氏家用新冠病毒抗原自我檢測套組,130,2022/10/25 10:13:02,無
5901103227,建誠中西藥局,臺北市中山區龍江路３８５之１號,121.541,25.06511,(02)25158608,羅氏家用新冠病毒抗原自我檢測套組,143,2022/10/25 10:13:02,實名制快篩發放時間 週一至週六13:00-14:00
5901103236,誠意中西藥局,臺北市中山區林森北路６１３號,121.5258,25.06647,(02)25950951,羅氏家用新冠病毒抗原自我檢測套組,231,2022/10/25 10:13:02,依情況調整
5901103272,長安藥局,臺北市中山區長安東路２段１７１－３號,121.5418,25.0484,(02)27772740,羅氏家用新冠病毒抗原自我檢測套組,109,2022/10/25 10:13:02,周日公休
5901103325,仁一藥局,臺北市中山區林森北路５２０號,121.5255,25.06232,(02)25711742,羅氏家用新冠病毒抗原自我檢測套組,161,2022/10/25 10:13:02,快篩發放時間每日下午2點
5901103334,大直小太陽藥局,臺北市中山區北安路６０７之１號,121.5488,25.08241,(02)85093208,羅氏家用新冠病毒抗原自我檢測套組,62,2022/10/25 10:13:02,無
5901103352,美康正康藥局,臺北市中山區北安路６１６之１號、６１８號２樓之１,121.549,25.08243,(02)25323077,羅氏家用新冠病毒抗原自我檢測套組,95,2022/10/25 10:13:02,無
5901103405,大直永安藥局,臺北市中山區北安路５６７之２號,121.5482,25.08073,(02)25332125,羅氏家用新冠病毒抗原自我檢測套組,186,2022/10/25 10:13:02,0-6歲幼童免費快篩及健保實名制快篩，上班時間都可購買
5901103414,元宏藥局,臺北市中山區北安路４５８巷４１弄４９號,121.5465,25.0794,(02)25339728,羅氏家用新冠病毒抗原自我檢測套組,19,2022/10/25 10:13:02,快篩試劑於營業時間08:00-12:00，14:30-21:30皆販售。
5901103423,農安藥局,臺北市中山區農安街１８之１號,121.5248,25.06483,(02)25959293,羅氏家用新冠病毒抗原自我檢測套組,442,2022/10/25 10:13:02,無
5901103487,錦州春天生活藥局,臺北市中山區錦州街２１３號、２１３號２樓,121.5321,25.06039,(02)25213586,羅氏家用新冠病毒抗原自我檢測套組,38,2022/10/25 10:13:02,快篩15:00販賣
5901103558,佳頤中西藥局,臺北市中山區長春路１４７之１號,121.5323,25.05495,(02)25641479,羅氏家用新冠病毒抗原自我檢測套組,174,2022/10/25 10:13:02,無
5901103585,禾全藥局,臺北市中山區龍江路３３２號,121.5409,25.06532,(02)25165721,羅氏家用新冠病毒抗原自我檢測套組,28,2022/10/25 10:13:02,實名制快篩發放時間：1400、19:00  ；現場排隊
5901103629,十二願藥局,臺北市中山區林森北路３０９號,121.5256,25.05588,(02)25311223,羅氏家用新冠病毒抗原自我檢測套組,156,2022/10/25 10:13:02,快篩晚上8點開始發放.營業時間下午1點至凌晨3點
5901103647,禾康藥局,臺北市中山區植福路２９６號（實際營業地址：１層）,121.5612,25.08125,(02)26562156,羅氏家用新冠病毒抗原自我檢測套組,185,2022/10/25 10:13:02,國定假日不執行調劑業務
5901103656,大樹龍江藥局,臺北市中山區龍江路２４２號,121.5406,25.05889,(02)25035666,羅氏家用新冠病毒抗原自我檢測套組,78,2022/10/25 10:13:02,快篩實名制，每天16:00開始販售，售完為止。
5901103665,安悅藥局,臺北市中山區吉林路１８９號,121.5304,25.0597,(02)25419879,羅氏家用新冠病毒抗原自我檢測套組,154,2022/10/25 10:13:02,實名制快篩販售時間:早上11點~售完為止，不發號碼牌僅現場排隊（每周日不販售）
5901103674,康廷藥局,臺北市中山區北安路６１１號（實際營業地址：１層）,121.5488,25.08253,(02)25335890,羅氏家用新冠病毒抗原自我檢測套組,133,2022/10/25 10:13:02,無
5901103683,東東藥局,臺北市中山區長春路２５７之２號１樓,121.5408,25.05477,(02)25031730,羅氏家用新冠病毒抗原自我檢測套組,150,2022/10/25 10:13:02,快篩發放時間:星期一至六 .全時段皆可領取
5901103692,誠果中西藥局,臺北市中山區吉林路１０１號１樓,121.5303,25.05619,(02)25238563,羅氏家用新冠病毒抗原自我檢測套組,88,2022/10/25 10:13:02,因為當日才收到快篩 本周發送時間不確定 麻煩現場來加line群組關注會提前告知
5901103727,盛康藥局,臺北市中山區吉林路３９９號１樓,121.5305,25.06587,(02)25969580,羅氏家用新冠病毒抗原自我檢測套組,218,2022/10/25 10:13:02,國定假日仍執行調劑業務
5901103745,吉林藥局,臺北市中山區吉林路３７１號（１樓）,121.5305,25.06511,(02)25865990,羅氏家用新冠病毒抗原自我檢測套組,411,2022/10/25 10:13:02,快篩實名制，每天16:00開始販售，售完為止。
5901103772,興耀生活藥局,臺北市中山區林森北路４０５號（１樓）,121.5257,25.05943,(02)25818210,羅氏家用新冠病毒抗原自我檢測套組,87,2022/10/25 10:13:02,國定假日仍執行調劑業務
5901103781,龍江台安藥局,臺北市中山區龍江路２４７號（１樓）,121.5408,25.05862,(02)25091007,羅氏家用新冠病毒抗原自我檢測套組,262,2022/10/25 10:13:02,實名制快篩9:30開始可領取
5901103790,可康藥局,臺北市中山區林森北路３７３號（１樓）,121.5257,25.05826,(02)25361078,羅氏家用新冠病毒抗原自我檢測套組,138,2022/10/25 10:13:02,快篩實名制晚上7點開始發放
5901103807,專品龍江藥局,臺北市中山區龍江路３１１號１樓,121.5409,25.06127,(02)25178870,羅氏家用新冠病毒抗原自我檢測套組,209,2022/10/25 10:13:02,全時段可領取實名制快篩
5901110133,泰成藥局,臺北市內湖區內湖路３段１３５號１樓,121.5899,25.08685,(02)27921231,羅氏家用新冠病毒抗原自我檢測套組,49,2022/10/25 10:13:02,口罩販售:上午9:00開始發號碼牌，9點同步販售.
5901110268,赫得藥局,臺北市內湖區康樂街７２巷１７弄４號１Ｆ,121.6178,25.06976,(02)26328642,羅氏家用新冠病毒抗原自我檢測套組,41,2022/10/25 10:13:02,每周日公休。快篩試劑於周一至周六，早上8:30開賣（賣完為止）。
5901110311,永安藥局,臺北市內湖區文德路２１０巷３０弄４８號,121.5852,25.07723,(02)26586658,羅氏家用新冠病毒抗原自我檢測套組,50,2022/10/25 10:13:02,口罩販售時間早上10點開始發號碼牌  同時販售
5901110339,富山藥局,臺北市內湖區麗山街３６４巷２號１樓,121.5728,25.08168,(02)27996446,羅氏家用新冠病毒抗原自我檢測套組,102,2022/10/25 10:13:02,周日公休，政府供貨不穩定，請搜尋facebook「富山生活藥妝」查看每日公告
5901110393,明湖藥局,臺北市內湖區東湖路７巷２７號１Ｆ,121.6125,25.0697,(02)26313515,羅氏家用新冠病毒抗原自我檢測套組,161,2022/10/25 10:13:02,快篩實名制，早上九點半販售。
5901110446,清白藥局,臺北市內湖區東湖路１０８號,121.6157,25.06828,(02)26305743,羅氏家用新冠病毒抗原自我檢測套組,114,2022/10/25 10:13:02,無
5901110624,宏光藥局,臺北市內湖區成功路２段２２１號１樓,121.5909,25.06738,(02)27919068,羅氏家用新冠病毒抗原自我檢測套組,209,2022/10/25 10:13:02,快篩實名制  0-6和65 歲免費快篩（隨到隨領）
5901111890,安康藥局,臺北市內湖區安康路４８２號,121.6158,25.06785,(02)26327675,羅氏家用新冠病毒抗原自我檢測套組,525,2022/10/25 10:13:02,無
5901111934,至康藥局,臺北市內湖區內湖路１段７３７巷１９弄１號,121.5785,25.07925,(02)26580022,羅氏家用新冠病毒抗原自我檢測套組,291,2022/10/25 10:13:02,無
5901112011,文新藥局,臺北市內湖區文湖街７－５號１樓,121.5599,25.08544,(02)87978865,羅氏家用新冠病毒抗原自我檢測套組,207,2022/10/25 10:13:02,快篩販售時間: 5／23起，到貨即賣，賣完為止！
5901112351,康信藥局,臺北市內湖區民權東路６段２９６巷２９號,121.6062,25.07203,(02)26342088,羅氏家用新冠病毒抗原自我檢測套組,78,2022/10/25 10:13:02,無
5901112593,康健藥局,臺北市內湖區康樂街８０號,121.6189,25.07015,(02)26305825,羅氏家用新冠病毒抗原自我檢測套組,180,2022/10/25 10:13:02,無
5901112682,富康東湖藥局,臺北市內湖區東湖路１１９巷４９弄１６號,121.617,25.06988,(02)26323222,羅氏家用新冠病毒抗原自我檢測套組,193,2022/10/25 10:13:02,視快篩實際到貨時間販售；LINE社群搜尋「富康藥局東湖店」會有第一線消息
5901112780,樂康藥妝藥局,臺北市內湖區文德路１１７號,121.5841,25.0787,(02)26562110,羅氏家用新冠病毒抗原自我檢測套組,40,2022/10/25 10:13:02,無
5901112824,思恩藥局,臺北市內湖區成功路４段６１巷２６號,121.5932,25.08121,(02)27965808,羅氏家用新冠病毒抗原自我檢測套組,125,2022/10/25 10:13:02,快篩販售時間:禮拜一~五 14:00~17:00
5901112860,展恩藥局,臺北市內湖區民權東路６段１３６巷４號,121.5877,25.06866,(02)27953041,羅氏家用新冠病毒抗原自我檢測套組,121,2022/10/25 10:13:02,快篩試劑販售時間:每周一至周六早上9:00開始販售，現場排隊，售完為止.
5901112879,壹零捌藥局,臺北市內湖區成功路４段３４４號,121.5996,25.08488,(02)27910061,羅氏家用新冠病毒抗原自我檢測套組,140,2022/10/25 10:13:02,快篩販售星期一至星期六（國定假日10-19點）
5901112977,瑞光藥局,臺北市內湖區瑞光路２１２號,121.5763,25.07525,(02)87513365,羅氏家用新冠病毒抗原自我檢測套組,80,2022/10/25 10:13:02,實名制快篩：平日14:00~20:00；例假日14:00~17:00
5901112995,昇龍藥局,臺北市內湖區東湖路１５１號,121.6174,25.0681,(02)26316783,羅氏家用新冠病毒抗原自我檢測套組,911,2022/10/25 10:13:02,營業時間為早上8點到晚上10點；實名制快篩於每日下午一點前領取，​但若排隊人數已超過數量，將視情況提早發放。
5901113018,桔子藥局,臺北市內湖區內湖路２段３３３號,121.5917,25.08319,(02)27930052,羅氏家用新冠病毒抗原自我檢測套組,2,2022/10/25 10:13:02,早0900-1200，午1400-1700，晚1900-2100
5901113027,晟安藥局,臺北市內湖區金龍路１３５號,121.5902,25.08593,(02)87919320,羅氏家用新冠病毒抗原自我檢測套組,64,2022/10/25 10:13:02,快篩一~六早上10；00開始販售
5901113081,宜昇優良藥局,臺北市內湖區康寧路３段１６５巷１０號,121.6118,25.07081,(02)26327817,羅氏家用新冠病毒抗原自我檢測套組,176,2022/10/25 10:13:02,快篩代售時間:星期1-5，早上9:00；星期6.日.例假日，早上10:00
5901113143,躍獅寶湖藥局,臺北市內湖區民權東路６段１２３巷２８號,121.5928,25.0701,(02)87928335,羅氏家用新冠病毒抗原自我檢測套組,420,2022/10/25 10:13:02,實名制快篩: 每日上午9:30 開始販售 現場排隊 售完為止 詳細細節請注意店內公告
5901113198,傑昇藥局,臺北市內湖區內湖路２段２２７號,121.589,25.0818,(02)27925957,羅氏家用新冠病毒抗原自我檢測套組,193,2022/10/25 10:13:02,無
5901113205,新安健保藥局,臺北市內湖區新明路４０２號,121.5797,25.05466,(02)27932289,羅氏家用新冠病毒抗原自我檢測套組,203,2022/10/25 10:13:02,快篩實名制9:10開始販售
5901113250,大內湖藥局,臺北市內湖區成功路３段１６４號１樓,121.5903,25.08035,(02)27956286,羅氏家用新冠病毒抗原自我檢測套組,72,2022/10/25 10:13:02,早上9:30開始發售
5901113269,樂齡藥師藥局,臺北市內湖區內湖路３段１０３號,121.5909,25.08641,(02)27919707,羅氏家用新冠病毒抗原自我檢測套組,86,2022/10/25 10:13:02,上午9:00至下午9:00，假日機動
5901113296,喜越藥局,臺北市內湖區內湖路１段２８５巷５９弄７號,121.5673,25.08377,(02)26271955,羅氏家用新冠病毒抗原自我檢測套組,950,2022/10/25 10:13:02,無
5901113312,江南大藥局,臺北市內湖區文德路２２巷９弄５６號,121.5791,25.07656,(02)26595430,羅氏家用新冠病毒抗原自我檢測套組,88,2022/10/25 10:13:02,週一到週六上午9點賣快篩，週日不販售
5901113330,躍獅大湖藥局,臺北市內湖區成功路４段３２９號,121.599,25.08454,(02)27945376,羅氏家用新冠病毒抗原自我檢測套組,29,2022/10/25 10:13:02,星期一~星期六下午4點開始販售快篩 （無發放號碼牌）
5901113367,瑞暉藥局,臺北市內湖區文德路１０５號,121.5837,25.0787,(02)26276828,羅氏家用新冠病毒抗原自我檢測套組,51,2022/10/25 10:13:02,營業時間: 09:00~22:00
5901113401,躍獅麗湖藥局,臺北市內湖區內湖路１段４０１之１號,121.5706,25.08188,(02)26276160,羅氏家用新冠病毒抗原自我檢測套組,56,2022/10/25 10:13:02,實名制快篩直接入內購買
5901113438,晶龍藥局,臺北市內湖區成功路４段２１８號,121.5961,25.08456,(02)27956255,羅氏家用新冠病毒抗原自我檢測套組,107,2022/10/25 10:13:02,快篩試劑販售時間:星期一~六下午2:30 售完為止
5901113456,佑全內湖康寧藥局,臺北市內湖區康寧路３段３９號、３９號２樓、４１號、４３號,121.6078,25.07264,(02)26346578,羅氏家用新冠病毒抗原自我檢測套組,126,2022/10/25 10:13:02,實名制快篩14:00-19:00販售
5901113509,安安藥局,臺北市內湖區康寧路１段４號１樓,121.5912,25.08057,(02)87912187,羅氏家用新冠病毒抗原自我檢測套組,201,2022/10/25 10:13:02,快篩時段9:00-9:30；營業時段8:30~22:30
5901113563,耀元藥局,臺北市內湖區康樂街１５０號,121.6192,25.07263,(02)26337369,羅氏家用新冠病毒抗原自我檢測套組,147,2022/10/25 10:13:02,10／16、10／23公休
5901113572,西湖藥局,臺北市內湖區內湖路１段３５５號,121.5693,25.0822,(02)26279291,羅氏家用新冠病毒抗原自我檢測套組,360,2022/10/25 10:13:02,國定假日不執行調劑業務
5901113590,維安藥局,臺北市內湖區成功路３段１７４巷２３號,121.5906,25.08143,(02)27944520,羅氏家用新冠病毒抗原自我檢測套組,30,2022/10/25 10:13:02,每日0930-2000販售實名快篩
5901113625,富康文德藥局,臺北市內湖區文德路２２巷２７弄４號,121.58,25.0766,(02)26272000,羅氏家用新冠病毒抗原自我檢測套組,73,2022/10/25 10:13:02,無
5901113643,博昱東福藥局,臺北市內湖區東湖路１４７號,121.6172,25.06815,(02)26308599,羅氏家用新冠病毒抗原自我檢測套組,124,2022/10/25 10:13:02,無
5901113652,加一藥師藥局,臺北市內湖區星雲街２４號１樓,121.5908,25.07804,(02)87912653,羅氏家用新冠病毒抗原自我檢測套組,123,2022/10/25 10:13:02,無
5901113661,內湖藥局,臺北市內湖區康寧路１段１１６號１樓,121.5934,25.07948,(02)27940545,羅氏家用新冠病毒抗原自我檢測套組,6,2022/10/25 10:13:02,快篩實名制，每天16:00開始販售，售完為止。
5901113689,葫光藥局,臺北市內湖區康寧路３段５４巷６號１樓,121.609,25.07168,(02)26336611,羅氏家用新冠病毒抗原自我檢測套組,404,2022/10/25 10:13:02,實名制快篩販售時間 依LINE社群公告為主 售完為止
5901113705,富康活力湖光藥局,臺北市內湖區康寧路１段２５號１樓,121.5914,25.08062,(02)87927999,羅氏家用新冠病毒抗原自我檢測套組,312,2022/10/25 10:13:02,全時段提供免費快篩，營業時間8-22  **Line社群搜尋 [[ 富康活力湖光藥局 ]]，會有第一線消息唷**
5901113723,杏一港墘藥局,臺北市內湖區港墘路８３號（１樓）,121.5781,25.08078,(02)87978746,羅氏家用新冠病毒抗原自我檢測套組,149,2022/10/25 10:13:02,無
5901113732,富康活力誠功藥局,臺北市內湖區成功路４段３０巷２０號１樓,121.5916,25.08235,(02)27960222,羅氏家用新冠病毒抗原自我檢測套組,112,2022/10/25 10:13:02,正常供應的話都是每日16:00開始販售快篩，建議來現場加入**LINE社群**，可以獲得最新第一手資訊
5901120022,旭村藥局,臺北市南港區興華路１１２號,121.6055,25.05661,(02)27820948,羅氏家用新冠病毒抗原自我檢測套組,98,2022/10/25 10:13:02,快篩實名制販賣以號碼牌為準
5901120175,新錦安藥局,臺北市南港區南港路３段３４號,121.5922,25.05429,(02)27825218,羅氏家用新冠病毒抗原自我檢測套組,70,2022/10/25 10:13:02,無
5901120308,加欣藥局,臺北市南港區南港路２段２６號,121.6054,25.05425,(02)27836222,羅氏家用新冠病毒抗原自我檢測套組,114,2022/10/25 10:13:02,星期日公休 快篩販售時間每日上午9:00不發放號碼牌
5901121421,祥安藥局,臺北市南港區中坡南路２５號,121.5832,25.04329,(02)26547322,羅氏家用新冠病毒抗原自我檢測套組,2151,2022/10/25 10:13:02,無
5901121583,健園藥局,臺北市南港區研究院路１段１９號１樓,121.6166,25.05401,(02)27851567,羅氏家用新冠病毒抗原自我檢測套組,50,2022/10/25 10:13:02,早上8點開賣 （政府有配送的狀況下） 沒發放號碼牌售完為止
5901121618,新東發藥局,臺北市南港區成福路１９８號,121.5883,25.04092,(02)27855190,羅氏家用新冠病毒抗原自我檢測套組,185,2022/10/25 10:13:02,營業時間 早上10:00至晚上9:00
5901121627,富康活力藥局,臺北市南港區研究院路１段１０１巷１２號（１樓）,121.6165,25.05181,(02)27828810,羅氏家用新冠病毒抗原自我檢測套組,186,2022/10/25 10:13:02,週一至週六，每天09:00-21:00販售口罩，請記得帶健保卡&零錢，售完為止。
5901121672,亞博藥師藥局,臺北市南港區興華路８１號,121.6061,25.05545,(02)27838090,羅氏家用新冠病毒抗原自我檢測套組,861,2022/10/25 10:13:02,無
5901121725,佳龍藥局,臺北市南港區研究院路２段８０號,121.6152,25.0454,(02)27885951,羅氏家用新冠病毒抗原自我檢測套組,70,2022/10/25 10:13:02,無
5901121734,湳港藥局,臺北市南港區研究院路１段１０１巷１０號１樓,121.6167,25.05175,(02)27892200,羅氏家用新冠病毒抗原自我檢測套組,199,2022/10/25 10:13:02,週一至週日，2:30開賣（政府有配送的況狀下）（沒有發放號碼牌），售完為止
5901121823,儀安健保藥局,臺北市南港區同德路７４號,121.5853,25.0457,(02)27859893,羅氏家用新冠病毒抗原自我檢測套組,93,2022/10/25 10:13:02,實名制快篩下午三點開賣，無發放號碼牌（只有週日為晚上六點）
5901121841,泓安藥局,臺北市南港區興華路７５號,121.6061,25.05517,(02)27861083,羅氏家用新冠病毒抗原自我檢測套組,12,2022/10/25 10:13:02,星期一至星期日早上10:00開賣快篩試劑
5901121850,健涵藥局,臺北市南港區舊莊街１段１４７號,121.6205,25.03985,(02)27837285,羅氏家用新冠病毒抗原自我檢測套組,191,2022/10/25 10:13:02,發快篩時間：每日下午一點
5901121869,南港藥局,臺北市南港區南港路一段１６６號,121.6119,25.05536,(02)27829137,羅氏家用新冠病毒抗原自我檢測套組,73,2022/10/25 10:13:02,快篩販售時間晚上6:00~晚上8:00（每天78份，售完即止）（周日休息）
5901121896,順翔藥局,臺北市南港區研究院路２段１７０號,121.6169,25.03785,(02)27824332,羅氏家用新冠病毒抗原自我檢測套組,290,2022/10/25 10:13:02,代售政府實名制快篩 週一~週五早上10:00 週六早上9:30開始
5901121903,景星藥局,臺北市南港區南港路３段２６號,121.5924,25.05434,(02)27838816,羅氏家用新冠病毒抗原自我檢測套組,103,2022/10/25 10:13:02,第4輪 每日快篩實名制 不限時間
5901121912,成恩藥局,臺北市南港區成福路２３號,121.5867,25.04473,(02)27856602,羅氏家用新冠病毒抗原自我檢測套組,98,2022/10/25 10:13:02,快篩販賣時間：平日 周一到周五 下午3:00~5:00，現場排隊不發放號碼牌
5901121930,小藥師健保藥局,臺北市南港區福德街３２０之１號,121.588,25.03948,(02)27867002,羅氏家用新冠病毒抗原自我檢測套組,133,2022/10/25 10:13:02,快篩販售時間，每天早上10點開始販售，售完為止
5901121958,心亮藥局,臺北市南港區玉成街６６之７號,121.5818,25.04692,(02)27881677,羅氏家用新冠病毒抗原自我檢測套組,185,2022/10/25 10:13:02,無
5901121985,勝安藥局,臺北市南港區舊莊街１段１６５號,121.6211,25.03949,(02)27828450,羅氏家用新冠病毒抗原自我檢測套組,78,2022/10/25 10:13:02,星期天下午3點半營業
5901122062,躍獅忠孝藥局,臺北市南港區成福路１６號,121.586,25.04561,(02)27862829,羅氏家用新冠病毒抗原自我檢測套組,383,2022/10/25 10:13:02,下午3:30開始販售快篩，不發放號碼牌
5901122115,上丞藥師藥局,臺北市南港區成福路１０號１樓,121.5859,25.04574,(02)26535589,羅氏家用新冠病毒抗原自我檢測套組,249,2022/10/25 10:13:02,無
5901122124,杏安藥局,臺北市南港區昆陽街１４０巷１６號１樓,121.5938,25.04969,(02)27864119,羅氏家用新冠病毒抗原自我檢測套組,315,2022/10/25 10:13:02,實名制快篩周一~周六下午3點-4點現場販售，不發放號碼牌；周日不販售
5901150011,南風藥局,臺北市士林區美崙街１９號１樓,121.5233,25.09715,(02)28320375,羅氏家用新冠病毒抗原自我檢測套組,39,2022/10/25 10:13:02,無
5901150057,菁安藥局,臺北市士林區美侖街５號１樓,121.5214,25.09718,(02)28323951,羅氏家用新冠病毒抗原自我檢測套組,436,2022/10/25 10:13:02,早上八點半發放快篩  （現場發，不發放號碼牌）
5901150128,新興藥局,臺北市士林區德行西路１１７號,121.5206,25.10398,(02)28362643,羅氏家用新冠病毒抗原自我檢測套組,58,2022/10/25 10:13:02,無
5901150146,坤成泰藥局,臺北市士林區大南路４１２號,121.5162,25.08996,(02)28813903,羅氏家用新冠病毒抗原自我檢測套組,149,2022/10/25 10:13:02,實名制快篩販賣時間 9.30~12.00   14.00~18.00  賣完為止
5901150235,杏城藥局,臺北市士林區天母東路２４號,121.5322,25.11764,(02)28725144,羅氏家用新冠病毒抗原自我檢測套組,234,2022/10/25 10:13:02,週一至週五14:00 週六10:00販售實名制快篩試劑 週日公休
5901150244,佳赫藥局,臺北市士林區文昌路６２號,121.5214,25.09605,(02)28367202,羅氏家用新冠病毒抗原自我檢測套組,264,2022/10/25 10:13:02,快篩早上8:30開始販售
5901150253,文祥藥局,臺北市士林區光華路２６巷２弄２號,121.542,25.13749,(02)28623487,羅氏家用新冠病毒抗原自我檢測套組,148,2022/10/25 10:13:02,周一至周日早上8點30分開始售實名制快篩
5901150271,建芳藥局,臺北市士林區德行東路１４８號,121.5296,25.10804,(02)28357172,羅氏家用新冠病毒抗原自我檢測套組,199,2022/10/25 10:13:02,無
5901150342,士林三安藥局,臺北市士林區大南路１１號,121.526,25.08898,(02)28812631,羅氏家用新冠病毒抗原自我檢測套組,69,2022/10/25 10:13:02,無
5901150397,博惠藥局,臺北市士林區華榮街１６號,121.5236,25.09549,(02)28320379,羅氏家用新冠病毒抗原自我檢測套組,75,2022/10/25 10:13:02,實名制快篩 ，週一至週日
5901150468,太安藥局,臺北市士林區延平北路５段１５７號,121.5101,25.08251,(02)28111468,羅氏家用新冠病毒抗原自我檢測套組,191,2022/10/25 10:13:02,無
5901150548,田倉藥局,臺北市士林區士東路１２２號１樓,121.5302,25.11219,(02)88662188,羅氏家用新冠病毒抗原自我檢測套組,76,2022/10/25 10:13:02,每日營業時間即販售，直到售完為止.
5901150575,日康藥局,臺北市士林區士東路１２號１樓,121.5267,25.11168,(02)28358558,羅氏家用新冠病毒抗原自我檢測套組,100,2022/10/25 10:13:02,無
5901150593,安寧藥局,臺北市士林區劍潭路９１號,121.5199,25.08285,(02)28803319,羅氏家用新冠病毒抗原自我檢測套組,30,2022/10/25 10:13:02,領藥星期1.3.5為 9:00~12:00.及16:00~20:00*星期2.4.6.--上午
5901150771,天母大和藥師藥局,臺北市士林區德行東路１８９－１號１樓,121.5317,25.10897,(02)28310142,羅氏家用新冠病毒抗原自我檢測套組,149,2022/10/25 10:13:02,快篩實名制 配合營業時間  賣完為止
5901150815,陽明藥局,臺北市士林區菁山路１０號１樓,121.5469,25.13797,(02)28612863,羅氏家用新冠病毒抗原自我檢測套組,87,2022/10/25 10:13:02,早上9點30到12點健保卡排隊.（作業時間2小時）下午1點到晚上6點領回口罩及健保卡
5901152079,資生堂藥局,臺北市士林區承德路４段４０巷１７號１Ｆ,121.522,25.08107,(02)28857588,羅氏家用新冠病毒抗原自我檢測套組,212,2022/10/25 10:13:02,無
5901152293,安泰藥師藥局,臺北市士林區延平北路六段８３號（實際使用：１、２樓）,121.5087,25.08844,(02)28166977,羅氏家用新冠病毒抗原自我檢測套組,367,2022/10/25 10:13:02,星期一~星期六 下午2點30分 開始發快篩~
5901152471,得安藥局,臺北市士林區文林路１４０號,121.5267,25.08878,(02)28836336,羅氏家用新冠病毒抗原自我檢測套組,162,2022/10/25 10:13:02,星期一三五六下午3:30  星期二 四日下午5:00
5901152604,達揚藥局,臺北市士林區社正路３６號１樓,121.5099,25.08877,(02)88115559,羅氏家用新冠病毒抗原自我檢測套組,145,2022/10/25 10:13:02,無
5901152640,仁大藥局,臺北市士林區社子街１３號１樓,121.5083,25.08769,(02)88113793,羅氏家用新冠病毒抗原自我檢測套組,48,2022/10/25 10:13:02,週一至週六上午8:40開始販售，週日公休。
5901152659,和樹藥局,臺北市士林區後港街４５巷１號１樓,121.5228,25.08444,(02)28821188,羅氏家用新冠病毒抗原自我檢測套組,66,2022/10/25 10:13:02,週日公休，周一早上9:30
5901152720,博信藥局,臺北市士林區延平北路６段６１號,121.5088,25.08788,(02)28128295,羅氏家用新冠病毒抗原自我檢測套組,150,2022/10/25 10:13:02,星期天休息
5901152739,芳圓藥局,臺北市士林區社子街２６－１號,121.508,25.0875,(02)28168666,羅氏家用新冠病毒抗原自我檢測套組,92,2022/10/25 10:13:02,快篩販售時間，目前量能足夠，早上9點15分開賣
5901152748,柏雅大藥局,臺北市士林區德行西路６４號,121.5227,25.10506,(02)88664398,羅氏家用新冠病毒抗原自我檢測套組,172,2022/10/25 10:13:02,每天早上10:30開始販售快篩試劑，星期日公休不販售。
5901152793,信光藥局,臺北市士林區文昌路６８號,121.5214,25.09619,(02)28366277,羅氏家用新冠病毒抗原自我檢測套組,23,2022/10/25 10:13:02,無
5901152873,幸福藥局,臺北市士林區德行東路１０９巷８號,121.5284,25.10812,(02)28346650,羅氏家用新冠病毒抗原自我檢測套組,137,2022/10/25 10:13:02,實名制Covid-19快篩販售時間:每日早上8點至晚上10點販售（含星日（如果有貨））售完為止
5901153058,誼安藥局,臺北市士林區通河街４２號,121.5215,25.08044,(02)28851899,羅氏家用新冠病毒抗原自我檢測套組,137,2022/10/25 10:13:02,營業時間周一至周五8:30至21點，12至14:30午休.周六8:30至12:00周日公休
5901153101,聖賢藥局,臺北市士林區士商路５８號,121.52,25.09056,(02)28833046,羅氏家用新冠病毒抗原自我檢測套組,345,2022/10/25 10:13:02,10／10 國慶店休。
5901153272,光榮藥局,臺北市士林區社中街１１８號,121.5103,25.0899,(02)28136060,羅氏家用新冠病毒抗原自我檢測套組,94,2022/10/25 10:13:02,無
5901153432,大南春天生活藥局,臺北市士林區大南路３１７、３１９號,121.518,25.08888,(02)28882196,羅氏家用新冠病毒抗原自我檢測套組,239,2022/10/25 10:13:02,本藥局可領慢箋 快篩是下午3點開始販售 售完為止（物流無配送&配送不及例外）
5901153487,和謙藥局,臺北市士林區社中街３６２號,121.5041,25.09242,(02)28165678,羅氏家用新冠病毒抗原自我檢測套組,36,2022/10/25 10:13:02,無
5901153496,躍獅忠誠藥局,臺北市士林區忠義街７０號,121.5314,25.10594,(02)28387948,羅氏家用新冠病毒抗原自我檢測套組,99,2022/10/25 10:13:02,販售視到貨情況，售完門口會告示
5901153503,祥新藥局,臺北市士林區社子街６５號,121.5067,25.08751,(02)28110906,羅氏家用新冠病毒抗原自我檢測套組,42,2022/10/25 10:13:02,實名制快篩周一到周六全天販賣 1200-1500及1800-1845休息
5901153521,天母台安藥局,臺北市士林區天母西路３４號,121.5262,25.11835,(02)28728017,羅氏家用新冠病毒抗原自我檢測套組,69,2022/10/25 10:13:02,每日下午2:30開賣至晚上9點（售完為止）
5901153567,華齡春天生活藥局,臺北市士林區華齡街３６、３８號,121.5195,25.08359,(02)28882156,羅氏家用新冠病毒抗原自我檢測套組,224,2022/10/25 10:13:02,每日下午三點開始兌換快篩!敬請配合!!
5901153585,德行春天生活藥局,臺北市士林區德行東路７６號,121.5275,25.1073,(02)28380306,羅氏家用新冠病毒抗原自我檢測套組,227,2022/10/25 10:13:02,快篩:下午2點40持健保卡販售，到晚上10點售完為止。自費快篩已經到貨！！
5901153610,家安健保藥局,臺北市士林區德行東路１０９巷１１９號,121.5288,25.11156,(02)28322182,羅氏家用新冠病毒抗原自我檢測套組,93,2022/10/25 10:13:02,兒童政府免費快篩，成人實名制快篩目前尚有庫存，營業時間內皆可領取。
5901153665,康佑藥局,臺北市士林區延平北路５段１７６號,121.5103,25.08299,(02)28119981,羅氏家用新冠病毒抗原自我檢測套組,75,2022/10/25 10:13:02,實名制快篩9點開始
5901153674,愛佳藥局,臺北市士林區承德路４段２２２之１號,121.5215,25.0885,(02)28811199,羅氏家用新冠病毒抗原自我檢測套組,16,2022/10/25 10:13:02,無
5901153683,安奕藥局,臺北市士林區葫蘆街３０巷１２號,121.5099,25.08034,(02)28133289,羅氏家用新冠病毒抗原自我檢測套組,89,2022/10/25 10:13:02,週日休。65歲以上，6歲以下免費快篩領取，實名制快篩劑販售中
5901153727,前港盛康藥局,臺北市士林區前港街２８號,121.522,25.0846,(02)28831079,羅氏家用新冠病毒抗原自我檢測套組,412,2022/10/25 10:13:02,實名制快篩，早上9:00開始販售
5901153825,太和堂中西藥局,臺北市士林區大東路７４號（實際使用：１樓）,121.5257,25.09037,(02)28814122,羅氏家用新冠病毒抗原自我檢測套組,327,2022/10/25 10:13:02,週日公休
5901153861,佩佩藥局,臺北市士林區中山北路６段１８２號,121.5252,25.10759,(02)28382662,羅氏家用新冠病毒抗原自我檢測套組,44,2022/10/25 10:13:02,08:30開始販售快篩，售完為止。
5901153905,躍獅芝山藥局,臺北市士林區福華路１５４號（實際使用：１樓）,121.5227,25.10357,(02)28365822,羅氏家用新冠病毒抗原自我檢測套組,80,2022/10/25 10:13:02,無
5901153941,士東藥局,臺北市士林區士東路９１巷３號,121.5291,25.11256,(02)28760588,羅氏家用新冠病毒抗原自我檢測套組,78,2022/10/25 10:13:02,快篩實名制，每天16:00開始販售，售完為止。
5901153969,杏一士林延平藥局,臺北市士林區延平北路５段２５０號（１樓）、２５２號１樓,121.51,25.08468,(02)28112937,羅氏家用新冠病毒抗原自我檢測套組,89,2022/10/25 10:13:02,周一至周六中午12點販售實名制快篩試劑
5901154000,文昌大藥局,臺北市士林區文昌路７２號１樓,121.5213,25.09634,(02)28376196,羅氏家用新冠病毒抗原自我檢測套組,4,2022/10/25 10:13:02,實名制快篩已開始販售，每日提供醫護警消人員優先購買
5901154019,忠義台安藥局,臺北市士林區忠義街７２號１樓,121.5315,25.106,(02)28380685,羅氏家用新冠病毒抗原自我檢測套組,153,2022/10/25 10:13:02,每日上午9點到晚上9點（當日份數售完即結束販售）
5901154073,中山盛康藥局,臺北市士林區中山北路７段１６２號１樓,121.5327,25.12416,(02)28771887,羅氏家用新冠病毒抗原自我檢測套組,339,2022/10/25 10:13:02,實名制快篩9:00-21:30
5901154108,藥本家藥局,臺北市士林區中山北路７段１４巷２６號１樓,121.5328,25.11884,(02)28766682,羅氏家用新冠病毒抗原自我檢測套組,102,2022/10/25 10:13:02,周一 ~ 五 13:00~20:00 視人潮發放號碼牌
5901154135,誠泰中西藥局,臺北市士林區永平街１３號１樓,121.5051,25.08996,(02)88112352,羅氏家用新冠病毒抗原自我檢測套組,145,2022/10/25 10:13:02,星期天公休
5901154144,加赫藥局,臺北市士林區文昌路７６號１樓,121.5212,25.09646,(02)28336362,羅氏家用新冠病毒抗原自我檢測套組,88,2022/10/25 10:13:02,無
5901160044,石牌藥局,臺北市北投區石牌路１段４９號,121.5106,25.1133,(02)28214986,羅氏家用新冠病毒抗原自我檢測套組,360,2022/10/25 10:13:02,無
5901160053,天蓮藥局,臺北市北投區石牌路１段１６６巷１１５號,121.5155,25.11192,(02)28211824,羅氏家用新冠病毒抗原自我檢測套組,29,2022/10/25 10:13:02,無
5901160062,丸三大藥局,臺北市北投區自強街１０５號,121.5153,25.11086,(02)28230637,羅氏家用新冠病毒抗原自我檢測套組,187,2022/10/25 10:13:02,無
5901160099,進春藥局,臺北市北投區明德路１５１號,121.5206,25.11086,(02)28216938,羅氏家用新冠病毒抗原自我檢測套組,63,2022/10/25 10:13:02,無休 上午九點開始販售，現場排隊。（依現場公告為主）
5901160142,德昇藥局,臺北市北投區裕民二路２０號,121.517,25.11604,(02)28217565,羅氏家用新冠病毒抗原自我檢測套組,94,2022/10/25 10:13:02,週一至週六下午2:30分 實名制快篩現場發售 若前一天未售完，則早上仍繼續發售  不刷卡不開統編  請自備500元
5901160197,川秀藥局,臺北市北投區石牌路２段９９巷９號１樓,121.5166,25.11792,(02)28270702,羅氏家用新冠病毒抗原自我檢測套組,651,2022/10/25 10:13:02,無
5901160222,新祥藥局,臺北市北投區知行路２０８號－１,121.4668,25.11935,(02)28582551,羅氏家用新冠病毒抗原自我檢測套組,109,2022/10/25 10:13:02,實名制快篩下午1:30分發放號碼牌，隨後依照號碼牌發售，周日休息
5901160286,昌源藥局,臺北市北投區中央北路４段４８５號,121.4692,25.12843,(02)28928695,羅氏家用新冠病毒抗原自我檢測套組,91,2022/10/25 10:13:02,周日公休
5901160400,世全藥局,臺北市北投區知行路２７３號,121.4672,25.12134,(02)28585378,羅氏家用新冠病毒抗原自我檢測套組,264,2022/10/25 10:13:02,早0000-0100，午0000-0000晚17:30-2400
5901160428,九福藥局,臺北市北投區公館路２３６號,121.5081,25.12612,(02)28953009,羅氏家用新冠病毒抗原自我檢測套組,108,2022/10/25 10:13:02,★週日店休未營業. 快篩下午1點發號碼牌
5901160517,弘安藥局,臺北市北投區懷德街３３號１樓,121.5193,25.11219,(02)28206390,羅氏家用新冠病毒抗原自我檢測套組,282,2022/10/25 10:13:02,周一到週五 AM9:30-PM9:00，週六AM9:30-PM6:00，快篩隨到隨買
5901160544,黎明藥局,臺北市北投區尊賢街２５３－１號,121.5066,25.11817,(02)28223795,羅氏家用新冠病毒抗原自我檢測套組,7,2022/10/25 10:13:02,營業時間星期1-6早上930至1230 下午1600至2100每日 星期日休息
5901160562,名山藥局,臺北市北投區東陽街４７５號１樓,121.5199,25.11231,(02)28226101,羅氏家用新冠病毒抗原自我檢測套組,59,2022/10/25 10:13:02,快篩試劑早上08:30販賣
5901160704,明華藥局,臺北市北投區清江路８號（實際使用：１樓）,121.5015,25.13156,(02)28971056,羅氏家用新冠病毒抗原自我檢測套組,238,2022/10/25 10:13:02,實名制快篩上午9:00現場販售
5901160802,美康藥局,臺北市北投區明德路９０號１樓,121.5196,25.1094,(02)28281176,羅氏家用新冠病毒抗原自我檢測套組,9,2022/10/25 10:13:02,營業時間:10:30~22:00；13:30開始販售快篩
5901161890,良興藥局,臺北市北投區中和街２８６號,121.5004,25.14047,(02)28933360,羅氏家用新冠病毒抗原自我檢測套組,217,2022/10/25 10:13:02,18:30 開始營業至凌晨 12:30
5901161934,康揚藥局,臺北市北投區中和街３０８號１樓,121.4998,25.14108,(02)28946520,羅氏家用新冠病毒抗原自我檢測套組,193,2022/10/25 10:13:02,（ 實名制快篩發放時間: 14:00~16:00）周日公休
5901162119,祐鄰藥局,臺北市北投區尊賢街２５０號,121.5073,25.11707,(02)28281232,羅氏家用新冠病毒抗原自我檢測套組,319,2022/10/25 10:13:02,營業時間隨到隨買，售完為止
5901162477,長宜藥局,臺北市北投區自強街１１２號,121.5155,25.11074,(02)28216605,羅氏家用新冠病毒抗原自我檢測套組,286,2022/10/25 10:13:02,實名制快篩試劑發放時間:週一~週五09:00~22:00，週六~週日09:00~18:00，售完為止，會依政府配送狀況調整
5901162806,大家藥局,臺北市北投區光明路１８２號,121.5033,25.13566,(02)28959000,羅氏家用新冠病毒抗原自我檢測套組,374,2022/10/25 10:13:02,快篩早上9點開賣 售完為止 沒有號碼牌 現場排隊
5901162833,維康藥局,臺北市北投區石牌路２段１９１．１９３號,121.5184,25.11874,(02)28206343,羅氏家用新冠病毒抗原自我檢測套組,160,2022/10/25 10:13:02,快篩發放時間為每日下午3點排隊，現場購賣
5901162879,杏嘉藥局,臺北市北投區清江路６８號,121.5017,25.13044,(02)28942585,羅氏家用新冠病毒抗原自我檢測套組,313,2022/10/25 10:13:02,實名制快篩發放時間早上9:30-晚上8:00，售完為止
5901163107,小豬藥局,臺北市北投區東陽街４０３號１樓,121.5176,25.11244,(02)28217099,羅氏家用新冠病毒抗原自我檢測套組,76,2022/10/25 10:13:02,無
5901163214,鴻恩藥局,臺北市北投區中央南路１段１２９號,121.5012,25.13015,(02)28926410,羅氏家用新冠病毒抗原自我檢測套組,125,2022/10/25 10:13:02,快篩試劑代售時間自08:30 ，現場排隊
5901163269,佳祈健保藥局,臺北市北投區明德路１４４號,121.5208,25.11047,(02)28232535,羅氏家用新冠病毒抗原自我檢測套組,138,2022/10/25 10:13:02,無
5901163296,天禧大藥局,臺北市北投區實踐街３５號,121.5087,25.11521,(02)28213558,羅氏家用新冠病毒抗原自我檢測套組,6,2022/10/25 10:13:02,無
5901163330,萬信藥局,臺北市北投區知行路３０５號（實際使用１樓）,121.4672,25.12214,(02)28583083,羅氏家用新冠病毒抗原自我檢測套組,194,2022/10/25 10:13:02,視到貨時間開賣
5901163376,北投春天藥局,臺北市北投區中央南路１段７６號,121.5011,25.13135,(02)28916668,羅氏家用新冠病毒抗原自我檢測套組,58,2022/10/25 10:13:02,快篩每日15:00販售 依物流到貨時間滾動調整
5901163394,致遠春天藥局,臺北市北投區致遠一路１段１３２號１、２樓,121.5149,25.11051,(02)28253258,羅氏家用新冠病毒抗原自我檢測套組,140,2022/10/25 10:13:02,15:30開始發放號碼牌15:30開始販售口罩
5901163410,尊賢藥局,臺北市北投區尊賢街２１２號,121.508,25.11551,(02)28270505,羅氏家用新冠病毒抗原自我檢測套組,102,2022/10/25 10:13:02,周一至週六營業時間內直接販售，周日休息。
5901163438,漢藥局,臺北市北投區吉利街１４６號,121.508,25.11854,(02)28236598,羅氏家用新冠病毒抗原自我檢測套組,61,2022/10/25 10:13:02,快篩實名制領取時間：周一至周六下午2點現場排隊
5901163465,振生大藥局,臺北市北投區中央北路３段６１號,121.4847,25.13785,(02)28977292,羅氏家用新冠病毒抗原自我檢測套組,320,2022/10/25 10:13:02,早上8:30點開始販售 週日公休
5901163492,全家藥粧藥局,臺北市北投區光明路１６６－２號,121.5027,25.13508,(02)28988685,羅氏家用新冠病毒抗原自我檢測套組,123,2022/10/25 10:13:02,無
5901163509,吉利春天生活藥局,臺北市北投區吉利街１２０號,121.5068,25.11851,(02)28253256,羅氏家用新冠病毒抗原自我檢測套組,75,2022/10/25 10:13:02,無
5901163527,理得藥局,臺北市北投區石牌路１段１５０號,121.5131,25.11426,(02)28289680,羅氏家用新冠病毒抗原自我檢測套組,4,2022/10/25 10:13:02,週一至日都有販售，08:00開始售完為止。
5901163536,天富大藥局,臺北市北投區石牌路２段１７１號（實際使用：１樓）,121.518,25.11848,(02)28225812,羅氏家用新冠病毒抗原自我檢測套組,32,2022/10/25 10:13:02,週一至週六下午2-3點直接販售；週日暫停販售
5901163545,天康大藥局,臺北市北投區中央南路１段５７號,121.5014,25.13192,(02)28914265,羅氏家用新冠病毒抗原自我檢測套組,317,2022/10/25 10:13:02,實名制快篩下午1:30現場販售
5901163563,躍獅光明藥局,臺北市北投區光明路５１號、５３號（實際使用：１樓）,121.4998,25.13286,(02)28915993,羅氏家用新冠病毒抗原自我檢測套組,238,2022/10/25 10:13:02,無
5901163572,永欣中西藥局,臺北市北投區中和街５０１號,121.4947,25.1452,(02)28910307,羅氏家用新冠病毒抗原自我檢測套組,69,2022/10/25 10:13:02,無
5901163581,陳藥師藥局,臺北市北投區光明路２巷１３－２號（實際使用：１樓）,121.4997,25.13132,(02)28921971,羅氏家用新冠病毒抗原自我檢測套組,169,2022/10/25 10:13:02,無
5901163616,江南育仁大藥局,臺北市北投區育仁路５５號１樓,121.4981,25.13361,(02)28981850,羅氏家用新冠病毒抗原自我檢測套組,206,2022/10/25 10:13:02,下午2點販售實名制快篩，假日視政府配發情況調整
5901163634,心樂藥局,臺北市北投區致遠一路２段１０５號１樓,121.5128,25.1131,(02)28210261,羅氏家用新冠病毒抗原自我檢測套組,273,2022/10/25 10:13:02,您好。發放快篩時間:周一二三五六早上8:30-12:00，周一二三五 下午4:00-7:00，周日及國定假日休息
5901163643,致遠盛康藥局,臺北市北投區致遠二路１４１號１樓,121.5128,25.1173,(02)28263580,羅氏家用新冠病毒抗原自我檢測套組,312,2022/10/25 10:13:02,無
5901163652,康賢藥局,臺北市北投區西安街１段３５９號１樓,121.5153,25.11429,(02)28219295,羅氏家用新冠病毒抗原自我檢測套組,72,2022/10/25 10:13:02,週一至週六下午1:00起販售快篩，週日及國定假日公休。
5901170022,良美藥局,臺北市信義區福德街２６８巷３７號,121.5854,25.04033,(02)27593659,羅氏家用新冠病毒抗原自我檢測套組,106,2022/10/25 10:13:02,無
5901170059,必欣藥局,臺北市信義區松仁路２６４號,121.5696,25.02425,(02)27225060,羅氏家用新冠病毒抗原自我檢測套組,148,2022/10/25 10:13:02,實名制快篩販售時間：星期一至星期日午13：30開始
5901170184,臺陽藥局,臺北市信義區大道路６１號,121.5823,25.04136,(02)27283403,羅氏家用新冠病毒抗原自我檢測套組,2,2022/10/25 10:13:02,快篩試劑早上9:30現場販售，週日沒有販售
5901170264,杏康藥局,臺北市信義區忠孝東路５段３７２巷２７弄６８－２號１Ｆ,121.5753,25.03976,(02)23457422,羅氏家用新冠病毒抗原自我檢測套組,84,2022/10/25 10:13:02,早上9:30開始販售
5901170335,慧生藥局,臺北市信義區松山路３１０號,121.5777,25.04256,(02)27647138,羅氏家用新冠病毒抗原自我檢測套組,144,2022/10/25 10:13:02,快篩開賣時間:每天 上午9點起
5901170406,鼎泰藥局,臺北市信義區基隆路１段１５５號１樓,121.5653,25.04222,(02)27620617,羅氏家用新冠病毒抗原自我檢測套組,113,2022/10/25 10:13:02,周一至周五 9：30-21：30 （9:30 開始發快篩） 5／1 有營業
5901170433,松山大藥局,臺北市信義區永吉路４３６號,121.5781,25.04526,(932)156305,羅氏家用新冠病毒抗原自我檢測套組,108,2022/10/25 10:13:02,購防疫快篩早上10:00_-發售. 週日休息
5901170648,立信藥局,臺北市信義區松山路４０３號,121.578,25.04144,(02)27687754,羅氏家用新冠病毒抗原自我檢測套組,59,2022/10/25 10:13:02,無
5901170906,吳興藥局,臺北市信義區吳興街２７９號１樓,121.5642,25.02658,(02)27208328,羅氏家用新冠病毒抗原自我檢測套組,365,2022/10/25 10:13:02,實名制快篩販售時間，周一至周六13：00現場排隊購買（勿電話追問）
5901170915,杏仁藥局,臺北市信義區大道路１３５號,121.5834,25.03901,(02)27262541,羅氏家用新冠病毒抗原自我檢測套組,56,2022/10/25 10:13:02,實名制快篩:週一至週五下午3點販售，週六週日無販售
5901172179,新和平藥局,臺北市信義區虎林街１９８號１樓,121.5769,25.03844,(02)23460951,羅氏家用新冠病毒抗原自我檢測套組,72,2022/10/25 10:13:02,每星期一至星期六早上10點起   發放實名制快篩試劑 .星期日休息
5901172213,華泰藥局,臺北市信義區虎林街８２巷５號,121.5769,25.04335,(02)27601992,羅氏家用新冠病毒抗原自我檢測套組,73,2022/10/25 10:13:02,快篩 ／ 每天早上 8:30  開始販售 .
5901172268,皇佳大藥局,臺北市信義區松山路５４１巷１９號,121.5789,25.03793,(02)27269868,羅氏家用新冠病毒抗原自我檢測套組,270,2022/10/25 10:13:02,65歲↑／0-6歲兒童實名制免費快篩限量供應中：）
5901172544,麗中藥局,臺北市信義區福德街２１７號,121.5847,25.03841,(02)27594416,羅氏家用新冠病毒抗原自我檢測套組,404,2022/10/25 10:13:02,無
5901172580,文興藥局,臺北市信義區福德街２４５號,121.5859,25.03874,(02)27590989,羅氏家用新冠病毒抗原自我檢測套組,85,2022/10/25 10:13:02,無
5901172651,康杏藥局,臺北市信義區福德街３０６號１樓,121.5874,25.03931,(02)27591510,羅氏家用新冠病毒抗原自我檢測套組,49,2022/10/25 10:13:02,無
5901172697,綠杏大藥局,臺北市信義區吳興街２４１號,121.5635,25.02745,(02)27582378,羅氏家用新冠病毒抗原自我檢測套組,74,2022/10/25 10:13:02,實名制快篩正常販售中
5901172704,鴻濟藥局,臺北市信義區永吉路３２６巷２號１樓,121.5754,25.04507,(02)27645331,羅氏家用新冠病毒抗原自我檢測套組,103,2022/10/25 10:13:02,快篩販售時間:周一至周五: 15:00開始。週六.周日:視實際到貨情形請見門口公告
5901172740,信桉藥局,臺北市信義區莊敬路２３６號,121.5621,25.0296,(02)87860005,羅氏家用新冠病毒抗原自我檢測套組,145,2022/10/25 10:13:02,快篩販售 W1-5 9:00-20:00，W6 9:30-15:00
5901172820,安心藥局,臺北市信義區永吉路３０巷１４８弄４之１號,121.5685,25.04266,(02)27474992,羅氏家用新冠病毒抗原自我檢測套組,76,2022/10/25 10:13:02,快篩代售時間14:00起現場排隊
5901172839,九州藥局,臺北市信義區和平東路３段２３９號,121.5543,25.02294,(02)87323331,羅氏家用新冠病毒抗原自我檢測套組,223,2022/10/25 10:13:02,無
5901172857,永吉藥局,臺北市信義區永吉路２１３號,121.5739,25.04572,(02)87874043,羅氏家用新冠病毒抗原自我檢測套組,38,2022/10/25 10:13:02,有關快篩，隨時賣!
5901172924,躍獅松仁藥局,臺北市信義區松仁路２３３號（實際營業地址：１樓）,121.5688,25.02617,(02)27238626,羅氏家用新冠病毒抗原自我檢測套組,9,2022/10/25 10:13:02,快篩販售時段:下午13:30開始售完至晚上19:00前
5901172933,喜樂藥局,臺北市信義區松德路１２５號,121.5753,25.03752,(02)27275797,羅氏家用新冠病毒抗原自我檢測套組,139,2022/10/25 10:13:02,周一至周六0900開始販發放實名制快篩.假日休
5901172964,榮泰藥局,臺北市信義區光復南路４１９巷１９號,121.5582,25.03659,(02)77296777,羅氏家用新冠病毒抗原自我檢測套組,191,2022/10/25 10:13:02,早上9:00開始發放實名制快篩號碼牌
5901173041,皇昇大藥局,臺北市信義區松山路２１０號１樓,121.5776,25.04509,(02)27663488,羅氏家用新冠病毒抗原自我檢測套組,58,2022/10/25 10:13:02,無販售實名制快篩
5901173210,濟生中西藥局,臺北市信義區崇德街４１號,121.5542,25.02436,(02)27358452,羅氏家用新冠病毒抗原自我檢測套組,135,2022/10/25 10:13:02,最新資訊FB:Jcp濟生中西藥局＃快篩:每天早8點開始＃營業時間:星期1245:早9點~晚9點 星期36:早9點~中午12點（中午休12-15點）
5901173238,正和藥局,臺北市信義區吳興街２２５巷６號,121.5634,25.02782,(02)23455186,羅氏家用新冠病毒抗原自我檢測套組,185,2022/10/25 10:13:02,下午2點半發放快篩，週日無發放
5901173283,上禾藥師藥局,臺北市信義區林口街２７號,121.5792,25.03741,(02)27592686,羅氏家用新冠病毒抗原自我檢測套組,144,2022/10/25 10:13:02,無
5901173372,新永春藥局,臺北市信義區忠孝東路５段４２３巷１號,121.5753,25.04126,(02)27667385,羅氏家用新冠病毒抗原自我檢測套組,87,2022/10/25 10:13:02,快篩販售時間:每日13:00開始，售完為止
5901173390,馨馨藥局,臺北市信義區虎林街８２巷１９號,121.5764,25.04336,(02)27491208,羅氏家用新冠病毒抗原自我檢測套組,36,2022/10/25 10:13:02,無
5901173407,康怡健保藥局,臺北市信義區吳興街４６７巷２弄１２號,121.5695,25.02381,(02)27206193,羅氏家用新冠病毒抗原自我檢測套組,203,2022/10/25 10:13:02,快篩早上9點開賣，賣完為止
5901173587,新興健保藥局,臺北市信義區永吉路３０巷１１３號,121.5689,25.04324,(02)27494892,羅氏家用新冠病毒抗原自我檢測套組,425,2022/10/25 10:13:02,快篩試劑庫存有時，直接販售。
5901173603,松德盛康藥局,臺北市信義區松德路４０號,121.5767,25.03896,(02)87891622,羅氏家用新冠病毒抗原自我檢測套組,99,2022/10/25 10:13:02,快篩禮拜一~六早上9:00開賣，禮拜日無配送
5901173694,洪暘藥局,臺北市信義區富陽街８６號,121.5564,25.02127,(02)27337099,羅氏家用新冠病毒抗原自我檢測套組,235,2022/10/25 10:13:02,下午2點開始販售，限一人持一張健保卡。
5901173710,專品光復藥局,臺北市信義區光復南路４６７之１號,121.5577,25.03384,(02)27586682,羅氏家用新冠病毒抗原自我檢測套組,278,2022/10/25 10:13:02,禮拜一到六下午三點販售口罩
5901173738,尚頤中西藥局,臺北市信義區虎林街１４５號,121.5767,25.03959,(02)27253818,羅氏家用新冠病毒抗原自我檢測套組,119,2022/10/25 10:13:02,無
5901173783,北一健康人生藥局,臺北市信義區吳興街２５５號,121.5637,25.02715,(02)27583945,羅氏家用新冠病毒抗原自我檢測套組,90,2022/10/25 10:13:02,下午3點開始販售實名制快篩
5901173818,博亞藥局,臺北市信義區莊敬路４６２號,121.5677,25.02672,(02)27580506,羅氏家用新冠病毒抗原自我檢測套組,2,2022/10/25 10:13:02,平日早上8:30、晚上8:00；假日早上8:30，發放號碼牌，持號碼牌購買!
5901173863,立赫北醫藥局,臺北市信義區吳興街１１８巷２６弄１７號,121.5599,25.03007,(02)27320100,羅氏家用新冠病毒抗原自我檢測套組,118,2022/10/25 10:13:02,周一至周六上午10：30開始販售實名制快篩至晚間8：30為止
5901173872,柏愛藥局,臺北市信義區基隆路２段１３１之９號,121.5567,25.02788,(02)27325472,羅氏家用新冠病毒抗原自我檢測套組,28,2022/10/25 10:13:02,於13:00及17:30休息半小時用餐；國定連假營業時間為09:30-17:30
5901173881,壹間藥師藥局,臺北市信義區虎林街１２０巷１４８號,121.5742,25.04213,(02)27672833,羅氏家用新冠病毒抗原自我檢測套組,43,2022/10/25 10:13:02,第六輪實名制快篩販售；兒童第四輪及第二輪65歲免費快篩領取時間: 周一~六 10:30；周日12:30開始販售
5901173925,杏一光復藥局,臺北市信義區光復南路４４９之１號,121.5578,25.03488,(02)87804626,羅氏家用新冠病毒抗原自我檢測套組,8,2022/10/25 10:13:02,無
5901173934,躍獅光復藥局,臺北市信義區光復南路４１７之８號,121.5577,25.03682,(02)87862307,羅氏家用新冠病毒抗原自我檢測套組,309,2022/10/25 10:13:02,下午1點開始販售
5901173961,北一忠孝藥局,臺北市信義區忠孝東路５段５２４巷１弄１６號１樓,121.5802,25.04133,(02)23464588,羅氏家用新冠病毒抗原自我檢測套組,17,2022/10/25 10:13:02,無
5901174002,吳興春天藥局,臺北市信義區吳興街１３７號１樓,121.5618,25.02947,(02)27585618,羅氏家用新冠病毒抗原自我檢測套組,251,2022/10/25 10:13:02,下午2:40發號碼牌
5901174011,寶春藥局,臺北市信義區虎林街１１９之１９號１樓,121.5771,25.04112,(02)27566501,羅氏家用新冠病毒抗原自我檢測套組,194,2022/10/25 10:13:02,無
5901174039,日安藥局,臺北市信義區松仁路２４０巷１３號１樓,121.5691,25.02454,(02)27203775,羅氏家用新冠病毒抗原自我檢測套組,79,2022/10/25 10:13:02,販售實名制快篩請自備五百元不找零，每天上午十點半開始販售。
5901174066,愛維喜藥局,臺北市信義區莊敬路２７８號１樓,121.5627,25.02882,(02)27586989,羅氏家用新冠病毒抗原自我檢測套組,396,2022/10/25 10:13:02,快篩.藥師上班時間，隨到隨領隨買.
5901174075,信義盛康藥局,臺北市信義區永吉路２８６號（１樓）,121.5744,25.04538,(02)23460521,羅氏家用新冠病毒抗原自我檢測套組,82,2022/10/25 10:13:02,無
5901174084,市政藥局,臺北市信義區忠孝東路５段１６９號１樓、１７１號１樓,121.5688,25.0412,(02)27560050,羅氏家用新冠病毒抗原自我檢測套組,186,2022/10/25 10:13:02,快篩實名制，每天16:00開始販售，售完為止。
5901180037,崇信藥局,臺北市中正區齊東街８８號,121.5272,25.04162,(02)23417557,羅氏家用新冠病毒抗原自我檢測套組,81,2022/10/25 10:13:02,上午8.30開始代售快篩 .售完為止.
5901180055,日生大藥局,臺北市中正區汀州路１段５３號１樓,121.5076,25.03026,(02)23031393,羅氏家用新冠病毒抗原自我檢測套組,268,2022/10/25 10:13:02,快篩試劑代售服務時間: 快篩試劑 每日上午10點起開賣 售完為止
5901180126,民生藥局,臺北市中正區濟南路２段４５－１號１樓,121.5305,25.0406,(02)23416470,羅氏家用新冠病毒抗原自我檢測套組,40,2022/10/25 10:13:02,8／7
5901180206,大安藥局,臺北市中正區新生南路１段１０６號,121.5326,25.03969,(02)23213186,羅氏家用新冠病毒抗原自我檢測套組,89,2022/10/25 10:13:02,週一到週六
5901180215,上海聯合藥局,臺北市中正區衡陽路３２號１樓,121.5126,25.04221,(02)23117744,羅氏家用新冠病毒抗原自我檢測套組,163,2022/10/25 10:13:02,無
5901180224,中心藥局,臺北市中正區汀州路３段１２１號,121.5303,25.01654,(02)23689889,羅氏家用新冠病毒抗原自我檢測套組,373,2022/10/25 10:13:02,快篩實名制目前0-6歲兒童，第四輪可免費領取一盒；65歲以上，第二輪可免費領取一盒
5901180304,祥全藥局,臺北市中正區信義路２段７９巷１５－８號１Ｆ,121.527,25.03545,(02)23939339,羅氏家用新冠病毒抗原自我檢測套組,349,2022/10/25 10:13:02,星期一至六下午2點開始賣快篩試劑
5901180322,南昌大藥局,臺北市中正區南昌路１段８６號１樓,121.5174,25.03086,(02)23510322,羅氏家用新冠病毒抗原自我檢測套組,137,2022/10/25 10:13:02,無
5901180368,古亭藥局,臺北市中正區汀州路３段１１７號,121.5301,25.01667,(02)23683618,羅氏家用新冠病毒抗原自我檢測套組,56,2022/10/25 10:13:02,星期六早上休息 星期日休息
5901182068,永興藥局,臺北市中正區汀州路１段９２巷２８號,121.5068,25.02999,(02)23050986,羅氏家用新冠病毒抗原自我檢測套組,96,2022/10/25 10:13:02,無
5901182086,國杏藥師示範藥局,臺北市中正區延平南路１７１巷３號,121.5079,25.03487,(02)23811322,羅氏家用新冠病毒抗原自我檢測套組,8,2022/10/25 10:13:02,無
5901182111,東華藥局,臺北市中正區汀州路３段１１３號,121.53,25.01673,(02)23640852,羅氏家用新冠病毒抗原自我檢測套組,173,2022/10/25 10:13:02,星期日店休   星期一至星期六 下午15點開始販售快篩試劑
5901182228,合泰大藥局,臺北市中正區衡陽路２６號,121.5129,25.04221,(02)23899977,羅氏家用新冠病毒抗原自我檢測套組,302,2022/10/25 10:13:02,快篩代售時間自09:00；現場排隊
5901183323,和平藥局,臺北市中正區中華路２段４３號,121.5064,25.03508,(02)23755303,羅氏家用新冠病毒抗原自我檢測套組,156,2022/10/25 10:13:02,正常做業
5901183396,慶安藥局,臺北市中正區徐州路２６號,121.5234,25.04061,(02)23582385,羅氏家用新冠病毒抗原自我檢測套組,87,2022/10/25 10:13:02,快篩販售時間：◆週一到週三09:00 ◆週四17:00 ◆週五到週六09:00。
5901183510,怡誠藥局,臺北市中正區汀州路２段２１２號,121.5237,25.02236,(02)23626905,羅氏家用新冠病毒抗原自我檢測套組,116,2022/10/25 10:13:02,無
5901183529,達昌藥局,臺北市中正區汀州路１段２０７號,121.5116,25.02692,(02)23390109,羅氏家用新冠病毒抗原自我檢測套組,54,2022/10/25 10:13:02,口罩配發時間 每日下午13:00開始
5901183645,大愛生活藥局,臺北市中正區汀州路２段２３２號,121.5243,25.02189,(02)23661155,羅氏家用新冠病毒抗原自我檢測套組,76,2022/10/25 10:13:02,下午14:30開始發放快篩（不發號碼牌直接買）~~不要太早開始排隊啊啊啊啊
5901183789,佑康大藥局,臺北市中正區汀州路２段１１５號１樓,121.5184,25.02513,(02)23683602,羅氏家用新冠病毒抗原自我檢測套組,323,2022/10/25 10:13:02,快篩隨時都能來買！阿妮亞萬歲～
5901183798,佳和藥局,臺北市中正區黎明里公園路３０號,121.5169,25.04448,(02)23117102,羅氏家用新冠病毒抗原自我檢測套組,137,2022/10/25 10:13:02,無
5901184071,進達健保藥局,臺北市中正區中華路２段４５３號,121.5096,25.0249,(02)23039829,羅氏家用新冠病毒抗原自我檢測套組,331,2022/10/25 10:13:02,實名制快篩全時段發售 下午3-3點半清消不營業 星期日公休
5901184080,活力健康藥妝藥局,臺北市中正區中華路２段３１５巷１號,121.5062,25.02795,(02)23392625,羅氏家用新冠病毒抗原自我檢測套組,40,2022/10/25 10:13:02,快篩每日09:30-21:00  週日1200:21:00
5901184106,信康藥局,臺北市中正區南昌路１段１４３號,121.5186,25.02953,(02)23961979,羅氏家用新冠病毒抗原自我檢測套組,86,2022/10/25 10:13:02,09:00開始 售完為止
5901184179,保德中華藥局,臺北市中正區中華路２段１５９號,121.5042,25.03101,(02)23027720,羅氏家用新冠病毒抗原自我檢測套組,108,2022/10/25 10:13:02,快篩下午三點開始販售
5901184213,71恩典藥局,臺北市中正區信義路２段７１號,121.5264,25.03466,(02)23223371,羅氏家用新冠病毒抗原自我檢測套組,392,2022/10/25 10:13:02,實名制快篩及免費快篩營業時間隨時可買或換。請持健保卡.
5901184222,豐仁藥局,臺北市中正區寧波西街１６１號,121.5109,25.02736,(02)23033908,羅氏家用新冠病毒抗原自我檢測套組,156,2022/10/25 10:13:02,實名制快篩販售: 周一至周六 12:30-13:30 週日:17:30-19:00
5901184240,立赫健保藥局,臺北市中正區新生南路１段１６之２號,121.5326,25.04323,(02)33223231,羅氏家用新冠病毒抗原自我檢測套組,178,2022/10/25 10:13:02,周一~六 上午11:00，周日及10／08 與10／09 中午12:30 開始販售；10／10國慶日公休。
5901184366,宏越藥局,臺北市中正區中華路２段３１３巷４號,121.5061,25.02813,(02)23050880,羅氏家用新冠病毒抗原自我檢測套組,117,2022/10/25 10:13:02,代售實名制快篩時間 每日下午14:30開始  售完即停止  可關注FB公告當日是否代售
5901184375,大盛藥局,臺北市中正區中華路１段２１巷１６號,121.5105,25.04645,(02)23713838,羅氏家用新冠病毒抗原自我檢測套組,151,2022/10/25 10:13:02,周日及國定假日公休
5901184446,北車維康藥局,臺北市中正區青島西路１１號,121.5178,25.04499,(02)23613623,羅氏家用新冠病毒抗原自我檢測套組,23,2022/10/25 10:13:02,快篩視政府有無配發而販售；星期一至日 1200現場排隊領取，售完為止，不發號碼牌
5901184491,躍獅南門藥局,臺北市中正區中華路２段３９巷１０號,121.5074,25.03484,(02)23141111,羅氏家用新冠病毒抗原自我檢測套組,399,2022/10/25 10:13:02,口罩販售時段：成人早上9點及晚上7點各200個
5901184535,桐心藥局,臺北市中正區金華街１８之６號１樓,121.5202,25.03175,(02)23581663,羅氏家用新冠病毒抗原自我檢測套組,184,2022/10/25 10:13:02,無
5901184553,珍忻藥局,臺北市中正區南昌路１段６５號,121.5174,25.03107,(02)23965115,羅氏家用新冠病毒抗原自我檢測套組,69,2022/10/25 10:13:02,無
5901184599,長頸鹿藥師藥局,臺北市中正區南昌路１段１３２號,121.5183,25.02955,(02)23962120,羅氏家用新冠病毒抗原自我檢測套組,173,2022/10/25 10:13:02,無
5901184633,躍獅東門藥局,臺北市中正區金山南路１段１０８之１號（１樓）,121.5273,25.03538,(02)23920339,羅氏家用新冠病毒抗原自我檢測套組,79,2022/10/25 10:13:02,販售時間:早上9點~下午1點
5901184642,康呈安藥局,臺北市中正區汀州路２段１８７號１樓,121.522,25.02403,(02)23672215,羅氏家用新冠病毒抗原自我檢測套組,185,2022/10/25 10:13:02,0-6歲免費快篩 0900-1400  公費500元快篩1500-2130   售完為止
5901184651,立赫臺大藥局,臺北市中正區公園路２８號１樓,121.517,25.04485,(02)23616162,羅氏家用新冠病毒抗原自我檢測套組,93,2022/10/25 10:13:02,實名制快篩星期一至六09:30開始販售，週日11:00開始販售10／10公休
5901184660,南昌春天藥局,臺北市中正區南昌路１段１５７號１樓,121.5188,25.02927,(02)23972886,羅氏家用新冠病毒抗原自我檢測套組,288,2022/10/25 10:13:02,政府實名制快篩試劑，每日下午2:40發號碼牌、下午3:00開始販售。
5901184679,汀州藥局,臺北市中正區汀州路１段１８７、１８９、１９１號（１樓）,121.5112,25.02704,(02)23090705,羅氏家用新冠病毒抗原自我檢測套組,50,2022/10/25 10:13:02,快篩實名制，每天16:00開始販售，售完為止。
5901184697,中英大藥局,臺北市中正區永綏街６號１樓,121.5112,25.043,(02)23617551,羅氏家用新冠病毒抗原自我檢測套組,156,2022/10/25 10:13:02,無
5901184713,建祥武昌藥局,臺北市中正區武昌街１段２９號１樓,121.5121,25.04416,(02)23314038,羅氏家用新冠病毒抗原自我檢測套組,266,2022/10/25 10:13:02,快篩領取時間  周一至周五 早上09:40  周末例假日 早上10:10
5901190024,長泰藥局,臺北市萬華區西園路２段２８０號,121.4942,25.02753,(02)23012869,羅氏家用新冠病毒抗原自我檢測套組,820,2022/10/25 10:13:02,快篩販賣時段為早上9:00至售完為止
5901190033,世欣藥局,臺北市萬華區東園街１７３號１Ｆ,121.4973,25.02419,(02)23074263,羅氏家用新冠病毒抗原自我檢測套組,172,2022/10/25 10:13:02,防疫快篩劑服務時間週一至五16:00-18:00週六10:00-12:00
5901190079,建和藥局,臺北市萬華區青年路１６８巷４４號,121.5016,25.01987,(02)23010838,羅氏家用新冠病毒抗原自我檢測套組,84,2022/10/25 10:13:02,春節期間看診時段請電洽
5901190177,信昌藥局,臺北市萬華區長泰街３６號１樓,121.5007,25.02336,(02)23054898,羅氏家用新冠病毒抗原自我檢測套組,172,2022/10/25 10:13:02,快篩實名制販售時間:週一~週六9:00~20:00售完為止
5901190220,生活大藥局,臺北市萬華區貴陽街２段１２４號,121.5025,25.03995,(02)23618609,羅氏家用新冠病毒抗原自我檢測套組,220,2022/10/25 10:13:02,無
5901190284,民鈺藥局,臺北市萬華區環河南路２段１３９號１樓,121.4933,25.03396,(02)23084270,羅氏家用新冠病毒抗原自我檢測套組,120,2022/10/25 10:13:02,星期一到五營業時間為早上9點到晚上10點. 星期六日早上9點到下午5點。實名快篩依庫存量調整時間販售
5901190426,皇祥藥局,臺北市萬華區萬青街１６５號１樓,121.5016,25.02279,(02)23375676,羅氏家用新冠病毒抗原自我檢測套組,77,2022/10/25 10:13:02,中秋節休息.星期日休息
5901190515,日昇藥局,臺北市萬華區廣州街１２４號,121.5016,25.03654,(02)23062975,羅氏家用新冠病毒抗原自我檢測套組,114,2022/10/25 10:13:02,實名制快篩隨到隨賣
5901190668,聯慶大藥局,臺北市萬華區萬大路３０６號１樓,121.5003,25.02495,(02)23039850,羅氏家用新冠病毒抗原自我檢測套組,78,2022/10/25 10:13:02,無
5901190686,信義藥局,臺北市萬華區青年路２８號,121.5052,25.02581,(02)23074599,羅氏家用新冠病毒抗原自我檢測套組,58,2022/10/25 10:13:02,無
5901190784,欣安藥局,臺北市萬華區東園街１９０、１９２號,121.4983,25.02177,(02)23327830,羅氏家用新冠病毒抗原自我檢測套組,257,2022/10/25 10:13:02,實名制快篩販售時間下午1:00-8:00
5901192162,寶興大藥局,臺北市萬華區寶興街１１９號,121.4948,25.02529,(02)23013375,羅氏家用新冠病毒抗原自我檢測套組,11,2022/10/25 10:13:02,周一至周五12：00開始代售，現場排隊，不發號碼牌
5901192180,康之友藥局,臺北市萬華區青年路２０號,121.5055,25.02592,(02)23011598,羅氏家用新冠病毒抗原自我檢測套組,235,2022/10/25 10:13:02,下午兩點發號碼牌
5901192448,健誠大藥局,臺北市萬華區環河南路２段１８５號,121.4919,25.03246,(02)23042223,羅氏家用新冠病毒抗原自我檢測套組,21,2022/10/25 10:13:02,實名制快篩販售：周一至周五早上9點開始，周六、周日早上10點開始
5901192546,躍獅西園藥局,臺北市萬華區西園路２段２６０號,121.4946,25.02784,(02)23094063,羅氏家用新冠病毒抗原自我檢測套組,26,2022/10/25 10:13:02,快篩販售時段：下午2點至售完為止（政府正常配貨的情況下，現場排隊）
5901192822,專品藥局,臺北市萬華區長沙街２段７１－１號,121.5051,25.04062,(02)23718892,羅氏家用新冠病毒抗原自我檢測套組,606,2022/10/25 10:13:02,快篩實名制下午3點發放
5901193070,榮勝藥局,臺北市萬華區萬大路２３３號,121.5006,25.02649,(02)23331121,羅氏家用新冠病毒抗原自我檢測套組,119,2022/10/25 10:13:02,每日快篩早上十一點開始販售
5901193105,安誠貴陽藥局,臺北市萬華區貴陽街２段１４８號,121.5016,25.04017,(02)23812190,羅氏家用新冠病毒抗原自我檢測套組,78,2022/10/25 10:13:02,無
5901193123,千誠北護藥局,臺北市萬華區內江街１１４號,121.5034,25.04152,(02)23123530,羅氏家用新冠病毒抗原自我檢測套組,70,2022/10/25 10:13:02,快篩一開門就發號碼牌，故網路庫存不準。
5901193150,日森人文藥局,臺北市萬華區和平西路３段１４９號,121.4988,25.03543,(02)23082100,羅氏家用新冠病毒抗原自我檢測套組,110,2022/10/25 10:13:02,快篩依政府每日到貨時間， 會立即公告粉絲頁販售時間規則
5901193169,柏祥藥局,臺北市萬華區西藏路１４１號,121.5017,25.02944,(02)23018272,羅氏家用新冠病毒抗原自我檢測套組,257,2022/10/25 10:13:02,1快篩服務時間自營業起到售完截止。2販售詳情請見門口公告。3周日公休不販售。
5901193196,青年宏越藥局,臺北市萬華區青年路４４號,121.5042,25.0255,(02)23011037,羅氏家用新冠病毒抗原自我檢測套組,6,2022/10/25 10:13:02,快篩六日不販售，禮拜一~五下午2:30-3:30，現場排隊
5901193221,正盛藥局,臺北市萬華區中華路２段４３４－１號,121.5064,25.02708,(02)23050386,羅氏家用新冠病毒抗原自我檢測套組,140,2022/10/25 10:13:02,【自費快篩+血氧機到貨!!】1.目前人潮【少】:【全天候隨到隨買】
5901193230,啟仁藥局,臺北市萬華區環河南路２段１７７號,121.492,25.03259,(02)23362771,羅氏家用新冠病毒抗原自我檢測套組,497,2022/10/25 10:13:02,6歲以下65歲以上免費快篩，發完為止
5901193249,光華藥局,臺北市萬華區華西街１９－５號,121.4985,25.03892,(02)23613609,羅氏家用新冠病毒抗原自我檢測套組,309,2022/10/25 10:13:02,周一至六上午11時營業即配合政府快篩試劑到貨發放，週日公休
5901193301,富安藥局,臺北市萬華區萬大路４２６號,121.4981,25.02096,(02)23377878,羅氏家用新冠病毒抗原自我檢測套組,152,2022/10/25 10:13:02,有販售快篩實名制，0900-2100
5901193310,和德藥局,臺北市萬華區西園路２段２９２號１樓,121.4935,25.02698,(02)23331522,羅氏家用新冠病毒抗原自我檢測套組,205,2022/10/25 10:13:02,快篩實名制，每天16:00開始販售，售完為止。
5901193329,西園宏越藥局,臺北市萬華區西園路２段２１３號,121.4942,25.02714,(02)23097336,羅氏家用新冠病毒抗原自我檢測套組,470,2022/10/25 10:13:02,實名制快篩販售時間周一~周五10:00~20:00 週六10:00~18:00
5901193338,艾米力藥師藥局,臺北市萬華區西藏路１０７－２號１樓,121.5035,25.02955,(02)23036583,羅氏家用新冠病毒抗原自我檢測套組,94,2022/10/25 10:13:02,10／10國慶日，上午至11:30；午晚休息。
5901193365,企鵝藥局,臺北市萬華區西昌街１７５號（１樓）,121.5007,25.03886,(02)23884691,羅氏家用新冠病毒抗原自我檢測套組,111,2022/10/25 10:13:02,公費快篩，系統發放時間9:00 - 22:30
5901200105,建興藥局,臺北市文山區木柵路２段８１號１樓,121.561,24.98889,(02)29399993,羅氏家用新冠病毒抗原自我檢測套組,149,2022/10/25 10:13:02,星期一至星期日早上8時30分現場販售實名制快篩試劑
5901200114,健群藥局,臺北市文山區景興路４１號,121.5448,24.99717,(02)29328898,羅氏家用新冠病毒抗原自我檢測套組,123,2022/10/25 10:13:02,無
5901200123,瑞安藥局,臺北市文山區溪口街６９－１號１樓,121.5393,24.99512,(02)29312888,羅氏家用新冠病毒抗原自我檢測套組,153,2022/10/25 10:13:02,早上8:30開始營業.星期日休息.快篩劑早上8:30開始販賣.
5901200490,永明大藥局,臺北市文山區興隆路１段２９７號１樓,121.5449,24.99875,(02)29314428,羅氏家用新冠病毒抗原自我檢測套組,184,2022/10/25 10:13:02,每日營業時間:早上9:00~晚上10:00，不限時段、不限購。
5901200534,日信專業藥局,臺北市文山區木柵路２段１３９號１樓,121.5625,24.98906,(02)86618322,羅氏家用新冠病毒抗原自我檢測套組,124,2022/10/25 10:13:02,無
5901201540,逸仙藥師藥局,臺北市文山區興隆路２段２１８－１號１樓,121.5524,25.00148,(02)29312597,羅氏家用新冠病毒抗原自我檢測套組,154,2022/10/25 10:13:02,9:00-10:00
5901201568,康宜庭生活藥局,臺北市文山區興隆路４段６４號,121.5613,24.98514,(02)29385363,羅氏家用新冠病毒抗原自我檢測套組,454,2022/10/25 10:13:02,實名快篩14:00開賣 現場排隊，如有前天未販售，則早上8:30販售
5901201728,東京晟藥局,臺北市文山區辛亥路４段９７號,121.5587,25.00684,(02)29356354,羅氏家用新冠病毒抗原自我檢測套組,115,2022/10/25 10:13:02,10\10正常營業0900--2300
5901201826,舒博威藥局,臺北市文山區興隆路２段９５巷３號,121.547,24.99952,(02)29306805,羅氏家用新冠病毒抗原自我檢測套組,124,2022/10/25 10:13:02,早上8:30開始販售
5901201835,巧康藥局,臺北市文山區木新路３段２６２、２６４號,121.5585,24.98132,(02)29372061,羅氏家用新冠病毒抗原自我檢測套組,72,2022/10/25 10:13:02,10／1起，實施第六輪家用抗原快篩試劑實名制，及第四輪0至6歲學齡前幼兒與第二輪65歲以上長者免費領取1份快篩試劑
5901201871,佳醫景美藥局,臺北市文山區羅斯福路６段２９０號,121.5398,24.991,(02)86636659,羅氏家用新冠病毒抗原自我檢測套組,183,2022/10/25 10:13:02,實名制快篩販售時間：每日12:00販售，售完為止
5901202047,華君藥局,臺北市文山區興隆路２段６０號,121.5478,24.99955,(02)29319510,羅氏家用新冠病毒抗原自我檢測套組,81,2022/10/25 10:13:02,每天12:00開始販售快篩
5901202216,皇興藥師藥局,臺北市文山區木柵路２段１２１號,121.5621,24.98901,(02)29365553,羅氏家用新冠病毒抗原自我檢測套組,110,2022/10/25 10:13:02,無
5901202396,宇康藥局,臺北市文山區羅斯福路５段２１８巷７號,121.5383,25.00203,(02)29307066,羅氏家用新冠病毒抗原自我檢測套組,89,2022/10/25 10:13:02,無
5901202627,杏隆藥局,臺北市文山區羅斯福路５段２６１號,121.5395,25.00115,(02)29313151,羅氏家用新冠病毒抗原自我檢測套組,163,2022/10/25 10:13:02,無
5901202645,永源大藥局,臺北市文山區興隆路３段３０２號,121.5588,24.99312,(02)22396166,羅氏家用新冠病毒抗原自我檢測套組,45,2022/10/25 10:13:02,無
5901202654,康宜庭萬隆藥局,臺北市文山區羅斯福路５段２０２號,121.5384,25.00322,(02)29348662,羅氏家用新冠病毒抗原自我檢測套組,1206,2022/10/25 10:13:02,無
5901202681,振大藥局,臺北市文山區永安街２２巷１６號,121.5697,24.98683,(02)29393385,羅氏家用新冠病毒抗原自我檢測套組,108,2022/10/25 10:13:02,無
5901202789,宜康藥局,臺北市文山區保儀路７號,121.5686,24.98872,(02)86619862,羅氏家用新冠病毒抗原自我檢測套組,51,2022/10/25 10:13:02,快篩平日下午一點半開始販售，國定假日及週末沒有販售
5901202841,欣安景美藥局,臺北市文山區景文街７７號,121.5414,24.99126,(02)29316008,羅氏家用新冠病毒抗原自我檢測套組,337,2022/10/25 10:13:02,今日快篩劑PM:14:00販賣售完為止
5901202850,北一藥師藥局,臺北市文山區木新路３段４７號,121.5642,24.98236,(02)22348686,羅氏家用新冠病毒抗原自我檢測套組,212,2022/10/25 10:13:02,無
5901202949,萬隆大藥局,臺北市文山區羅斯福路５段２１８巷１５號,121.538,25.00203,(02)29334580,羅氏家用新冠病毒抗原自我檢測套組,76,2022/10/25 10:13:02,9：00~22：30
5901202958,杏一萬安藥局,臺北市文山區萬安街１５號,121.5706,25.00139,(02)22302126,羅氏家用新冠病毒抗原自我檢測套組,152,2022/10/25 10:13:02,營業時間0900-2200
5901203062,大樹文山藥局,臺北市文山區興隆路３段１３號（１、２、３樓）,121.555,25.00088,(02)29342226,羅氏家用新冠病毒抗原自我檢測套組,199,2022/10/25 10:13:02,快篩實名制，每天16:00開始販售，售完為止。
5901203106,光明大藥局,臺北市文山區忠順街１段６６號,121.5607,24.98426,(02)29390275,羅氏家用新冠病毒抗原自我檢測套組,103,2022/10/25 10:13:02,無
5901203124,福興藥局,臺北市文山區福興路５６號,121.5505,25.00345,(02)89313868,羅氏家用新冠病毒抗原自我檢測套組,48,2022/10/25 10:13:02,領快篩時間:周一到周六，下午2點開放購買快篩，1人1卡1份
5901203160,路加健康藥局,臺北市文山區興隆路２段２２０巷３９號,121.5522,25.00022,(02)29302336,羅氏家用新冠病毒抗原自我檢測套組,181,2022/10/25 10:13:02,無
5901203188,逸全生活藥局,臺北市文山區羅斯福路５段２２２號,121.5388,25.00197,(02)29326185,羅氏家用新冠病毒抗原自我檢測套組,173,2022/10/25 10:13:02,無
5901203204,躍獅新芳藥局,臺北市文山區興隆路３段１６號（實際營業地址：１樓）,121.5549,25.00062,(02)29308172,羅氏家用新冠病毒抗原自我檢測套組,6,2022/10/25 10:13:02,無
5901203213,綠杏萬芳藥局,臺北市文山區興隆路３段１１１號,121.5583,25.00031,(02)29349516,羅氏家用新冠病毒抗原自我檢測套組,270,2022/10/25 10:13:02,10／10（一）公休，不販售快篩劑
5901203268,躍獅木柵藥局,臺北市文山區指南路１段２８號,121.5695,24.98756,(02)86617752,羅氏家用新冠病毒抗原自我檢測套組,114,2022/10/25 10:13:02,營業時間:0900-1800
5901203295,專品政大藥局,臺北市文山區指南路２段８號,121.5742,24.98784,(02)22343010,羅氏家用新冠病毒抗原自我檢測套組,223,2022/10/25 10:13:02,無
5901203375,大樹景美藥局,臺北市文山區羅斯福路６段２３４之１號,121.5404,24.99244,(02)29322951,羅氏家用新冠病毒抗原自我檢測套組,61,2022/10/25 10:13:02,快篩實名制，每天16:00開始販售，售完為止。
5901203400,富康活力睦新藥局,臺北市文山區木新路３段２１６號,121.5595,24.98153,(02)29393666,羅氏家用新冠病毒抗原自我檢測套組,30,2022/10/25 10:13:02,無
5901203419,康宜庭興隆藥局,臺北市文山區興隆路３段２００號１樓,121.559,24.99779,(02)22304866,羅氏家用新冠病毒抗原自我檢測套組,245,2022/10/25 10:13:02,無
5901203428,康宜庭景文藥局,臺北市文山區景文街９７號１樓,121.5413,24.99093,(02)29302801,羅氏家用新冠病毒抗原自我檢測套組,337,2022/10/25 10:13:02,營業時間為08:30-22:00
5901203446,景華盛康藥局,臺北市文山區景華街６９號１樓,121.545,24.99524,(02)29310188,羅氏家用新冠病毒抗原自我檢測套組,82,2022/10/25 10:13:02,快篩販售時間:下午3點開賣，現場發送號碼牌
5901203455,全球萬芳藥局,臺北市文山區興隆路３段６３號（１樓）,121.5562,25.00024,(02)89352147,羅氏家用新冠病毒抗原自我檢測套組,282,2022/10/25 10:13:02,營業時間9:00~22:00
5901203464,大愛幸福藥局,臺北市文山區木新路２段２２１號１樓,121.5675,24.98344,(02)29379977,羅氏家用新冠病毒抗原自我檢測套組,258,2022/10/25 10:13:02,無
5901203473,晴天藥局,臺北市文山區萬壽路１５號（１樓）,121.576,24.98811,(02)29363131,羅氏家用新冠病毒抗原自我檢測套組,52,2022/10/25 10:13:02,實名制快篩全天販售，一卡至多可買6盒!
5902010025,南京藥局,高雄市鹽埕區建國四路３８７號,120.284,22.63279,(07)5514652,羅氏家用新冠病毒抗原自我檢測套組,19,2022/10/25 10:13:02,實名制快篩若有庫存，星期1-6營業時間均可購買，星期日休息，售完為止
5902011291,長庚藥局,高雄市鹽埕區五福四路１６３號一樓,120.2834,22.62347,(07)5513436,羅氏家用新冠病毒抗原自我檢測套組,280,2022/10/25 10:13:02,無
5902011308,昇安藥局,高雄市鹽埕區瀨南街２２５號１樓,120.284,22.62797,(07)5216438,羅氏家用新冠病毒抗原自我檢測套組,244,2022/10/25 10:13:02,快篩試劑早上8:4 0開始發號碼牌
5902020012,永松藥局,高雄市鼓山區鼓山三路１３０－１５號,120.2802,22.66454,(07)5810657,羅氏家用新冠病毒抗原自我檢測套組,150,2022/10/25 10:13:02,星期一至星期日 每天早上9點開賣~晚上10點
5902021153,世和藥局,高雄市鼓山區華豐里華夏路１９５號,120.2959,22.66936,(07)5522566,羅氏家用新冠病毒抗原自我檢測套組,144,2022/10/25 10:13:02,賣快篩時間：周一至週日每天早上7奌30分，售完為止。
5902021233,崧柏藥局,高雄市鼓山區華榮路５４３號,120.2937,22.66969,(07)5542027,羅氏家用新冠病毒抗原自我檢測套組,148,2022/10/25 10:13:02,藥局販售快篩試劑時間每天8點40發號碼牌，9點開始。每天78份
5902021377,藍玉藥局,高雄市鼓山區鼓峰里九如四路２００２號,120.2861,22.66774,(07)5837528,羅氏家用新冠病毒抗原自我檢測套組,155,2022/10/25 10:13:02,賣快篩時間：周一至週六早上9:00 開始.售完為止。
5902022669,惠民藥局,高雄市鼓山區九如四路１４２６號,120.2793,22.6587,(07)5833228,羅氏家用新冠病毒抗原自我檢測套組,90,2022/10/25 10:13:02,快篩實名制於上午8點開始販售
5902022794,定國藥局,高雄市鼓山區九如四路１１３５號,120.2791,22.65936,(07)5815858,羅氏家用新冠病毒抗原自我檢測套組,450,2022/10/25 10:13:02,無
5902022801,裕康中西大藥局,高雄市鼓山區裕誠路１５１９號,120.2951,22.66479,(07)5555352,羅氏家用新冠病毒抗原自我檢測套組,180,2022/10/25 10:13:02,藥局販售口罩時間，依藥局門口公告時間為主（售完為止）
5902022829,弘興藥局,高雄市鼓山區鼓山三路４８－１１號,120.2757,22.65468,(07)5612677,羅氏家用新冠病毒抗原自我檢測套組,226,2022/10/25 10:13:02,無
5902022874,康爾喜藥局,高雄市鼓山區慶豐街５０號,120.2935,22.66647,(07)5222650,羅氏家用新冠病毒抗原自我檢測套組,217,2022/10/25 10:13:02,快篩試劑 （售完為止）。週日不發
5902022972,高雄藥局,高雄市鼓山區九如四路９２４號,120.2793,22.65466,(07)5214266,羅氏家用新冠病毒抗原自我檢測套組,60,2022/10/25 10:13:02,無
5902030063,紅心藥局,高雄市左營區崇德路２５５號,120.3041,22.67535,(07)3416697,羅氏家用新冠病毒抗原自我檢測套組,28,2022/10/25 10:13:02,早上8點30賣快篩到完
5902030090,宏仁藥局,高雄市左營區左營大路３９０號,120.2932,22.68702,(07)5817895,羅氏家用新冠病毒抗原自我檢測套組,17,2022/10/25 10:13:02,口罩代售時間自早上10:00開始，售完為止。
5902030269,立文藥局,高雄市左營區立文路５４號,120.3058,22.66458,(07)5572899,羅氏家用新冠病毒抗原自我檢測套組,135,2022/10/25 10:13:02,1
5902030287,慈德藥局,高雄市左營區重愛路５３號,120.3186,22.68308,(07)3416212,羅氏家用新冠病毒抗原自我檢測套組,103,2022/10/25 10:13:02,快篩發放時間:週一至週六:上午9點至21點.週日下午2點半9點；請自備剛好的錢.不用找錢.以利流程.
5902030312,吉辰藥局,高雄市左營區左營大路４１之１號,120.2876,22.68109,(07)5815069,羅氏家用新冠病毒抗原自我檢測套組,151,2022/10/25 10:13:02,早上9點開賣口罩   賣完為止
5902030410,重仁藥局,高雄市左營區左營大路４０８號,120.2935,22.68725,(07)5824083,羅氏家用新冠病毒抗原自我檢測套組,320,2022/10/25 10:13:02,自2／11日~2／29日，營業日08:00~22:30為販賣口罩時間.售完為止
5902030634,有機藥局,高雄市左營區榮耀街３號,120.3216,22.67935,(07)3596429,羅氏家用新冠病毒抗原自我檢測套組,78,2022/10/25 10:13:02,平日:7:40~22:00 六:08:00~22:00 星期日公休
5902030643,新高橋藥局,高雄市左營區民族一路１０２８號,120.3201,22.68255,(07)3100696,羅氏家用新冠病毒抗原自我檢測套組,155,2022/10/25 10:13:02,依快篩配送時間滾動式調整，請備妥當日可領買之健保卡與現金500元購買，不找零，謝謝配合
5902031999,平安藥局,高雄市左營區中華一路５之１號,120.287,22.66961,(07)5833688,羅氏家用新冠病毒抗原自我檢測套組,202,2022/10/25 10:13:02,週一~週六上午:8:00~12:00，下午:4:00~9:00， 週日例假日晚上6:00~9:00
5902032174,光明健保藥局,高雄市左營區翠華路６０１巷８３號,120.2893,22.67277,(07)5812499,羅氏家用新冠病毒抗原自我檢測套組,85,2022/10/25 10:13:02,實名制快篩周一到週六上午8:30販售.周日休息
5902032218,和信藥師健保藥局,高雄市左營區崇德路２６７號,120.3037,22.6756,(07)3419363,羅氏家用新冠病毒抗原自我檢測套組,75,2022/10/25 10:13:02,實名制快篩 ， 周一至周六上午9點起開始販賣 ， 周日店休 !!!
5902032432,威林藥局,高雄市左營區華夏路７２１號,120.3023,22.67845,(07)3414243,羅氏家用新冠病毒抗原自我檢測套組,123,2022/10/25 10:13:02,販售快篩:星期一~六早上9:00，（售完為止）
5902032441,健怡藥局,高雄市左營區翠峰路４０號,120.2897,22.67229,(07)5821891,羅氏家用新冠病毒抗原自我檢測套組,57,2022/10/25 10:13:02,快篩實名制週一~週六早上8:10開始販賣
5902032487,必健藥局,高雄市左營區自由二路９０號,120.309,22.65954,(07)5584259,羅氏家用新冠病毒抗原自我檢測套組,110,2022/10/25 10:13:02,快篩 AM 9:00 開始販售.
5902032530,杏光藥局,高雄市左營區果峰街４７巷１號１樓,120.2869,22.6703,(07)5837060,羅氏家用新冠病毒抗原自我檢測套組,132,2022/10/25 10:13:02,營業時間:上午 9 :00~13:00 ／ 晚上 17:00~21:00
5902032647,健智美藥局,高雄市左營區富國路９８號,120.3068,22.6591,(07)5580888,羅氏家用新冠病毒抗原自我檢測套組,77,2022/10/25 10:13:02,早上08:40開賣，自備零錢，售完止。
5902032674,辰暘藥局,高雄市左營區富民路１２０號１、２樓,120.3054,22.66066,(07)5588545,羅氏家用新冠病毒抗原自我檢測套組,19,2022/10/25 10:13:02,無
5902040014,成吉藥局,高雄市楠梓區楠梓東街７４號,120.3301,22.72966,(07)3513339,羅氏家用新冠病毒抗原自我檢測套組,149,2022/10/25 10:13:02,6／1起營業時間開始販賣實名制快篩，售完為止!!!星期日店休
5902040041,橘井藥局,高雄市楠梓區楠梓路１２９號,120.3286,22.73026,(07)3511869,羅氏家用新冠病毒抗原自我檢測套組,163,2022/10/25 10:13:02,快篩劑開賣時間：周一至週六每天上午8:00販售，售完為止。*** 周日店休，不販售***
5902040050,富翔藥局,高雄市楠梓區常德路３０７號,120.337,22.73691,(07)3516365,羅氏家用新冠病毒抗原自我檢測套組,319,2022/10/25 10:13:02,快篩實名制販售中，售完為止。
5902040069,新友藥局,高雄市楠梓區萬昌路１１１號,120.2895,22.71194,(07)3653534,羅氏家用新冠病毒抗原自我檢測套組,7,2022/10/25 10:13:02,藥局販售口罩時間，依藥局門口公告時間為主（售完為止）
5902040087,世詠藥局,高雄市楠梓區楠都東街１３８號,120.3262,22.72532,(07)3539869,羅氏家用新冠病毒抗原自我檢測套組,37,2022/10/25 10:13:02,快篩周一~周五早上9:00-21:0周六日下午15:00-21:30，售完為止
5902040112,丁丁楠梓藥局,高雄市楠梓區建楠路１３０、１３２、１３４號,120.3247,22.72731,(07)3533743,羅氏家用新冠病毒抗原自我檢測套組,24,2022/10/25 10:13:02,週一~週日於早上09:00開始販售實名制快篩試劑!丁丁藥局楠梓店（楠梓火車站前）關心您!
5902040185,東初藥局,高雄市楠梓區楠梓路３２號,120.33,22.72873,(07)3511261,羅氏家用新冠病毒抗原自我檢測套組,196,2022/10/25 10:13:02,10／1（六）起再度提供65歲以上及0~6歲幼兒5劑免費快篩
5902040210,益民藥局,高雄市楠梓區建楠路４７號,120.3287,22.72659,(07)3522161,羅氏家用新冠病毒抗原自我檢測套組,34,2022/10/25 10:13:02,開門時間10:00
5902040229,進昇藥局,高雄市楠梓區德賢路２０２號,120.3068,22.72694,(07)3652334,羅氏家用新冠病毒抗原自我檢測套組,283,2022/10/25 10:13:02,實名制快篩每日上午10點販售，售完為止
5902040498,順明藥局,高雄市楠梓區和光街６５號,120.2939,22.70717,(07)3615574,羅氏家用新冠病毒抗原自我檢測套組,188,2022/10/25 10:13:02,快篩試劑 09:00開始販售。
5902040532,聯亞藥局,高雄市楠梓區軍校路７１０號,120.293,22.70779,(07)3638387,羅氏家用新冠病毒抗原自我檢測套組,56,2022/10/25 10:13:02,到貨開始販售 1200-1500休息
5902041226,正人藥師藥局,高雄市楠梓區和昌里軍校路６７２號,120.293,22.70707,(07)3652942,羅氏家用新冠病毒抗原自我檢測套組,318,2022/10/25 10:13:02,『營業時間』早上8:20~晚上9:30【1~3點午休】；週六僅營業至中午；週日公休。
5902042376,佶辰藥局,高雄市楠梓區德民路６４１號１Ｆ,120.2962,22.72237,(07)3662802,羅氏家用新冠病毒抗原自我檢測套組,56,2022/10/25 10:13:02,營業日09:00~22:00為販賣快篩試劑時間 售完為止.如有更動以現場公告為主
5902042447,建佑藥局,高雄市楠梓區右昌街１９１號,120.2889,22.71153,(07)3626893,羅氏家用新冠病毒抗原自我檢測套組,607,2022/10/25 10:13:02,快篩於早上開門販售
5902042474,誠群藥局,高雄市楠梓區樂群路１８２號１樓,120.297,22.71914,(07)3661733,羅氏家用新冠病毒抗原自我檢測套組,2,2022/10/25 10:13:02,早上9點開始販賣快篩試劑，星期日休息
5902042492,合德中西藥師藥局,高雄市楠梓區楠梓路４８６號,120.3244,22.73812,(07)3581291,羅氏家用新冠病毒抗原自我檢測套組,197,2022/10/25 10:13:02,快篩實名制09:00開始販售
5902042563,天健藥局,高雄市楠梓區後昌路１０８７號,120.2922,22.71718,(07)3634179,羅氏家用新冠病毒抗原自我檢測套組,83,2022/10/25 10:13:02,早上九點販售快篩
5902042661,元春中西藥師藥局,高雄市楠梓區後昌路８３７巷３７號,120.294,22.71109,(07)3605656,羅氏家用新冠病毒抗原自我檢測套組,88,2022/10/25 10:13:02,周1~周6早上開賣快篩，售完為止
5902042769,家安藥局,高雄市楠梓區後昌新路１３號１樓,120.2917,22.71844,(07)3600066,羅氏家用新冠病毒抗原自我檢測套組,77,2022/10/25 10:13:02,10／10晚上休
5902050092,明曜藥局,高雄市三民區澄和路９６號,120.3441,22.64481,(07)3803807,羅氏家用新冠病毒抗原自我檢測套組,209,2022/10/25 10:13:02,營業日13:30販售快篩當場排隊.當場販售.售完為止
5902050298,瑞鶴藥局,高雄市三民區寶德里義德路２５號,120.3352,22.64301,(07)3862757,羅氏家用新冠病毒抗原自我檢測套組,88,2022/10/25 10:13:02,下午2:00至4:30午休勿擾，每日08:30至21:00發售快篩。
5902050350,日星藥局,高雄市三民區寶龍里惠德街３８號,120.3241,22.64741,(07)3845188,羅氏家用新冠病毒抗原自我檢測套組,38,2022/10/25 10:13:02,快篩口罩時間:星期一至五16:00-21:00；星期六09:00-11:30，售完為止
5902050378,安成藥局,高雄市三民區察哈爾二街６３號,120.301,22.64766,(07)3229295,羅氏家用新冠病毒抗原自我檢測套組,121,2022/10/25 10:13:02,AM8:30開始販售快篩實名制
5902050412,春仁藥局,高雄市三民區覺民路２２５號,120.3391,22.63944,(07)3962341,羅氏家用新冠病毒抗原自我檢測套組,51,2022/10/25 10:13:02,10／1-10／31時間自9:00-22:30現場排隊.（賣完為止）
5902050467,人禾藥局,高雄市三民區達仁里九如二路３２４號,120.3036,22.64137,(07)3215681,羅氏家用新冠病毒抗原自我檢測套組,131,2022/10/25 10:13:02,口罩販賣時段上午9:00至上午11: 00星期日放假
5902050565,澄和藥局,高雄市三民區澄和路６６號,120.3445,22.64474,(07)3923111,羅氏家用新冠病毒抗原自我檢測套組,115,2022/10/25 10:13:02,快篩試劑- 販售時間自上午10:00起至售完為止
5902050592,建昌藥局,高雄市三民區十全一路１０５號１樓,120.3105,22.64469,(07)3232356,羅氏家用新冠病毒抗原自我檢測套組,51,2022/10/25 10:13:02,賣快篩時間：周一至週日下午1:00開始販售，售完為止。
5902050636,嘉益藥局,高雄市三民區重慶街３０號,120.302,22.64223,(07)3110157,羅氏家用新冠病毒抗原自我檢測套組,95,2022/10/25 10:13:02,快篩實名制上午11：00開始販售.
5902050770,仁生藥局,高雄市三民區民享里熱河二街７８號,120.3006,22.64431,(07)3118765,羅氏家用新冠病毒抗原自我檢測套組,102,2022/10/25 10:13:02,上午:8點開始販售
5902050798,友泰藥局,高雄市三民區中和街１６９號,120.2868,22.6388,(07)3125236,羅氏家用新冠病毒抗原自我檢測套組,25,2022/10/25 10:13:02,無
5902050903,皇安藥局,高雄市三民區九如一路４６１號,120.3296,22.63865,(07)3866779,羅氏家用新冠病毒抗原自我檢測套組,70,2022/10/25 10:13:02,營業日0900可先領取號碼牌，上午9:00-12:00及下午3:00~10:.00為販賣快篩時間，售完為止
5902051240,明皇藥局,高雄市三民區寶國里義華路１８１號,120.3399,22.64276,(07)3860121,羅氏家用新冠病毒抗原自我檢測套組,125,2022/10/25 10:13:02,藥局販售口罩時間，依藥局門口公告時間為主（售完為止）
5902051268,上正藥師藥局,高雄市三民區憲政路２５５號,120.3185,22.63647,(07)2223355,羅氏家用新冠病毒抗原自我檢測套組,201,2022/10/25 10:13:02,每天早上9點販售政府實名制快篩試劑，周日不販售
5902051642,安寧藥局,高雄市三民區嫩江街３９號,120.2981,22.64208,(07)3217585,羅氏家用新冠病毒抗原自我檢測套組,43,2022/10/25 10:13:02,無
5902051786,億生藥局,高雄市三民區南台路２００號,120.2982,22.63706,(07)2873436,羅氏家用新冠病毒抗原自我檢測套組,117,2022/10/25 10:13:02,「藥局販售口罩時間，依藥局門口公告時間為主（售完為止）」
5902051866,久大藥局,高雄市三民區本文里立忠路３２號１Ｆ,120.3253,22.65318,(07)3858116,羅氏家用新冠病毒抗原自我檢測套組,121,2022/10/25 10:13:02,無
5902053833,建銘藥局,高雄市三民區吉林街２６２號,120.3068,22.64818,(07)3133460,羅氏家用新冠病毒抗原自我檢測套組,189,2022/10/25 10:13:02,0900營業時間販賣口罩.售完為止
5902054689,善全藥局,高雄市三民區義華路３９１號,120.3332,22.64339,(07)3960269,羅氏家用新冠病毒抗原自我檢測套組,87,2022/10/25 10:13:02,開始營業即販售，售完為止，其它看休息公告.
5902054858,勝發藥局,高雄市三民區金鼎路３５０號,120.3197,22.66521,(07)3474780,羅氏家用新冠病毒抗原自我檢測套組,136,2022/10/25 10:13:02,營業日08:00為販賣快篩試劑時間.售完為止
5902056638,柏仁藥局,高雄市三民區覺民路５０４號,120.3317,22.64092,(07)3976016,羅氏家用新冠病毒抗原自我檢測套組,86,2022/10/25 10:13:02,實名制快篩週1-6下午3:00-9:30 周日下午5:30-9:00開賣
5902056718,岱安藥局,高雄市三民區熱河二街２３號,120.3018,22.6439,(07)3219946,羅氏家用新冠病毒抗原自我檢測套組,63,2022/10/25 10:13:02,下午1點~5點開始販售實名制快篩（日公休）
5902056807,長慶藥局,高雄市三民區金鼎路３１０號,120.3207,22.66513,(07)3105835,羅氏家用新冠病毒抗原自我檢測套組,274,2022/10/25 10:13:02,早上10:00開始販售快篩
5902057126,民安藥局,高雄市三民區嫩江街７０號,120.2985,22.64282,(07)3121381,羅氏家用新冠病毒抗原自我檢測套組,115,2022/10/25 10:13:02,販賣快篩09:00~12:00_16:00~18:00_19:00~21:00（售完為止）
5902057144,欣仁惠藥局,高雄市三民區大昌二路２４８號,120.3323,22.64529,(07)3837833,羅氏家用新冠病毒抗原自我檢測套組,73,2022/10/25 10:13:02,無
5902057288,育英藥局,高雄市三民區灣子里和順街３９號,120.3159,22.65336,(07)3824467,羅氏家用新冠病毒抗原自我檢測套組,56,2022/10/25 10:13:02,營業時間:8:30-21:00， 週日休息
5902057368,崧民藥師藥局,高雄市三民區金鼎路２２８號,120.3238,22.66483,(07)3102496,羅氏家用新冠病毒抗原自我檢測套組,62,2022/10/25 10:13:02,服務時間9:00-22:00自10月1日~10月31日  早上9:30開始售快篩
5902057484,永勝藥局,高雄市三民區褒忠街１１４號,120.334,22.64262,(07)3814643,羅氏家用新冠病毒抗原自我檢測套組,193,2022/10/25 10:13:02,快篩試劑 販售: AM9:00.週六.09:30 售完為止.
5902057493,上泰藥局,高雄市三民區鼎山街５６９號,120.3177,22.65148,(07)3987396,羅氏家用新冠病毒抗原自我檢測套組,152,2022/10/25 10:13:02,快篩實名制販售星期一到星期六早上10:00開始
5902057519,伍陸藥局,高雄市三民區正興路９４號,120.3208,22.64597,(07)3890676,羅氏家用新冠病毒抗原自我檢測套組,140,2022/10/25 10:13:02,快篩發放時間早上08:30開始 售完為止
5902057680,健爾康藥局,高雄市三民區正興路２３號,120.3226,22.6456,(07)3965658,羅氏家用新冠病毒抗原自我檢測套組,111,2022/10/25 10:13:02,5／7起，營業日9 點開始販賣快篩時間，售完為止。
5902057831,愛橋藥局,高雄市三民區陽明路１９２號,120.3422,22.64207,(07)3945146,羅氏家用新冠病毒抗原自我檢測套組,84,2022/10/25 10:13:02,下午1:30開始販售罩藥局販售口罩時間，依藥局門口公告時間為主（售完為止）
5902057920,必好藥局,高雄市三民區義華路４６０號,120.3313,22.64356,(07)3851751,羅氏家用新冠病毒抗原自我檢測套組,40,2022/10/25 10:13:02,早上九點開始販售快篩，售完為止。
5902057939,朝陽健保藥局,高雄市三民區陽明路５７號１樓,120.341,22.63871,(07)3839886,羅氏家用新冠病毒抗原自我檢測套組,21,2022/10/25 10:13:02,每日上午09:00為販賣快篩時間，售完為止，若有異動依藥局門口公告時間為主
5902060025,連作藥局,高雄市新興區大同一路２０３－１號,120.3003,22.62856,(07)2154716,羅氏家用新冠病毒抗原自我檢測套組,337,2022/10/25 10:13:02,快篩試劑領用時間為每日上午8:30開始
5902060150,永明藥局,高雄市新興區仁智街２２３號,120.3027,22.62084,(07)2619832,羅氏家用新冠病毒抗原自我檢測套組,165,2022/10/25 10:13:02,政府實名制快篩劑販售中。營業時間: 週一至週六 上午10:00 ~ 晚上9:30
5902061540,長青藥局,高雄市新興區六合路１１４號,120.3159,22.63223,(07)2223969,羅氏家用新冠病毒抗原自我檢測套組,76,2022/10/25 10:13:02,快篩9點
5902061899,元盛藥局,高雄市新興區六合路１５３號,120.3149,22.63186,(07)2228183,羅氏家用新冠病毒抗原自我檢測套組,114,2022/10/25 10:13:02,快篩早上8點販售 週日公休.國慶連假休三天
5902071528,岩生藥局,高雄市前金區自立一路１５－１號,120.2975,22.63437,(07)2863608,羅氏家用新冠病毒抗原自我檢測套組,228,2022/10/25 10:13:02,營業時間為24小時 過年期間正常營業
5902071537,大衛藥局,高雄市前金區中華三路１８８號,120.295,22.63218,(07)2859958,羅氏家用新冠病毒抗原自我檢測套組,215,2022/10/25 10:13:02,元旦休假
5902071546,中華藥局,高雄市前金區中華四路３６３號,120.2987,22.62137,(07)2712779,羅氏家用新冠病毒抗原自我檢測套組,199,2022/10/25 10:13:02,星期日固定休假， 快篩於工作天開店即販售，  售完為止！
5902080036,瑞林藥局,高雄市苓雅區興中一路２８２號,120.3056,22.6162,(07)3312146,羅氏家用新冠病毒抗原自我檢測套組,8,2022/10/25 10:13:02,快篩試劑中午12點準時開賣賣完為止（販賣方式以藥局門口公告為主）
5902080312,正和藥局,高雄市苓雅區福建街３６２號,120.3138,22.6266,(07)2265377,羅氏家用新冠病毒抗原自我檢測套組,189,2022/10/25 10:13:02,無
5902080465,廣德泰藥局,高雄市苓雅區苓雅二路７６號,120.2997,22.61762,(07)3340769,羅氏家用新冠病毒抗原自我檢測套組,65,2022/10/25 10:13:02,每天開始販售實名制快篩，售完為止
5902080474,弘宗藥局,高雄市苓雅區武智街２號,120.3356,22.62303,(07)7211088,羅氏家用新冠病毒抗原自我檢測套組,43,2022/10/25 10:13:02,販售實名制快篩試劑
5902080518,福海藥局,高雄市苓雅區武慶三路５８號,120.332,22.61958,(07)7618855,羅氏家用新冠病毒抗原自我檢測套組,672,2022/10/25 10:13:02,早上09:00開始代售快篩，現場排隊售完為止，售出不退換。
5902080545,柏松藥局,高雄市苓雅區輔仁路１７５號,120.3332,22.63065,(07)7119786,羅氏家用新冠病毒抗原自我檢測套組,70,2022/10/25 10:13:02,實名制快篩試劑販售時間.09:00-22:00
5902080616,一加藥局,高雄市苓雅區和平一路四二號,120.3218,22.62093,(07)7212748,羅氏家用新冠病毒抗原自我檢測套組,194,2022/10/25 10:13:02,無
5902080803,功安中西大藥局,高雄市苓雅區三多二路２９１號,120.3195,22.61858,(07)7215949,羅氏家用新冠病毒抗原自我檢測套組,209,2022/10/25 10:13:02,無
5902080858,福興藥局,高雄市苓雅區成功一路５２號,120.2983,22.6131,(07)3331862,羅氏家用新冠病毒抗原自我檢測套組,82,2022/10/25 10:13:02,每日上午九點販賣快篩試劑售完止.營業時間9-21時.本月19.20日特休.
5902081015,明群藥局,高雄市苓雅區英明路５４號,120.3253,22.61276,(07)7254953,羅氏家用新冠病毒抗原自我檢測套組,115,2022/10/25 10:13:02,午休時間13:00~~14:30
5902081186,寶麒藥局,高雄市苓雅區三多一路１４４號,120.3315,22.62306,(07)7610355,羅氏家用新冠病毒抗原自我檢測套組,70,2022/10/25 10:13:02,1.快篩販售時間為營業時間.2.星期天不販售快篩試劑.3.停售口罩.
5902081328,東信藥局,高雄市苓雅區三多一路１８９號,120.3313,22.62258,(07)7613309,羅氏家用新冠病毒抗原自我檢測套組,274,2022/10/25 10:13:02,早上8:30開始發送號碼牌販售口罩，售完為止，假日正常販售
5902083457,順一藥局,高雄市苓雅區田西里成功一路２１０號,120.2969,22.61696,(07)3330011,羅氏家用新冠病毒抗原自我檢測套組,103,2022/10/25 10:13:02,營業時間早上8點30 至12點下午3點至9點（12點至3點休息）
5902083582,健智藥局,高雄市苓雅區四維二路９６之２號,120.3192,22.62258,(07)7249153,羅氏家用新冠病毒抗原自我檢測套組,239,2022/10/25 10:13:02,營業日8:30~12:00為販賣快篩時間.售完為止
5902083591,晨安藥局,高雄市苓雅區興中一路１６０號,120.3096,22.61753,(07)3365463,羅氏家用新冠病毒抗原自我檢測套組,78,2022/10/25 10:13:02,上午9開始販賣快篩.售完為止
5902084703,瑞生藥局,高雄市苓雅區自強三路３１號,120.2996,22.61376,(07)3305239,羅氏家用新冠病毒抗原自我檢測套組,90,2022/10/25 10:13:02,自6／1日~12／31日，營業日09:30~23:00為販賣口罩時間.售完為止
5902084749,琉璃光藥師藥局,高雄市苓雅區四維一路２９２號之一樓,120.3244,22.6242,(07)7160930,羅氏家用新冠病毒抗原自我檢測套組,57,2022/10/25 10:13:02,早上8點販賣快篩劑
5902084785,新良安藥局,高雄市苓雅區苓雅二路１０６號,120.2987,22.61731,(07)3386980,羅氏家用新冠病毒抗原自我檢測套組,58,2022/10/25 10:13:02,早上8點30分開始代售實名制快篩.不分單雙號
5902084801,邱吉祥藥局,高雄市苓雅區凱旋二路１３５號,120.3218,22.62917,(07)2226055,羅氏家用新冠病毒抗原自我檢測套組,45,2022/10/25 10:13:02,快篩販賣時間:週一至週六早上08:30現場賣
5902085031,上好藥局,高雄市苓雅區四維一路六三號一樓,120.3294,22.6257,(07)7266863,羅氏家用新冠病毒抗原自我檢測套組,78,2022/10/25 10:13:02,政府快篩購買時間＞＞每日上午09:30起~~~
5902085148,召祐健保藥局,高雄市苓雅區正義路９３號,120.3385,22.63037,(07)7493719,羅氏家用新冠病毒抗原自我檢測套組,152,2022/10/25 10:13:02,快篩週一到週六，每天早上08:30開賣，賣完為止
5902085166,景福藥局,高雄市苓雅區和平一路１４７之５號,120.3204,22.62364,(07)7719152,羅氏家用新冠病毒抗原自我檢測套組,126,2022/10/25 10:13:02,2／11早上9:00至下午15:00，2／12至16日休
5902085184,惠春藥局,高雄市苓雅區武慶三路９６號,120.3319,22.62043,(07)7611358,羅氏家用新冠病毒抗原自我檢測套組,25,2022/10/25 10:13:02,「藥局販售口罩時間，依藥局門口公告時間為主（售完為止）」
5902085308,幸福藥師藥局,高雄市苓雅區青年一路１６７－３號,120.3079,22.62172,(07)5368701,羅氏家用新冠病毒抗原自我檢測套組,524,2022/10/25 10:13:02,無
5902085344,意祥藥局,高雄市苓雅區武廟路１４２之１號,120.3276,22.63125,(07)7224835,羅氏家用新冠病毒抗原自我檢測套組,288,2022/10/25 10:13:02,藥局販售口罩時間，依藥局門口公告時間為主（售完為止）
5902085371,加和藥局,高雄市苓雅區和平一路１４３之７號,120.3205,22.62331,(07)7219332,羅氏家用新冠病毒抗原自我檢測套組,173,2022/10/25 10:13:02,快篩每日10點販售，勿再來電詢問。星期天不販售。
5902090032,全國大藥局,高雄市前鎮區三多二路４０３號１樓,120.3166,22.61777,(07)3346525,羅氏家用新冠病毒抗原自我檢測套組,146,2022/10/25 10:13:02,快篩實名制10點開始..賣完為止
5902090121,意文藥局,高雄市前鎮區瑞華里武營路１８３號,120.3374,22.60991,(07)7226570,羅氏家用新冠病毒抗原自我檢測套組,240,2022/10/25 10:13:02,每天8點營業 立即販賣
5902090167,勝惠藥局,高雄市前鎮區忠孝里三多三路７１號,120.3122,22.6163,(07)3354766,羅氏家用新冠病毒抗原自我檢測套組,44,2022/10/25 10:13:02,無
5902090765,家安大藥局,高雄市前鎮區崗山南街３４２巷２１號,120.3323,22.6021,(07)7137711,羅氏家用新冠病毒抗原自我檢測套組,103,2022/10/25 10:13:02,週一（上午8:30~9:30、下午1:00~5:00、晚上7:00）、週二~週日（上午9點），實際依藥局門口公告時間及快篩送達時間為主
5902090827,博平藥局,高雄市前鎮區草衙二路３７７號,120.3224,22.57808,(07)8311814,羅氏家用新冠病毒抗原自我檢測套組,174,2022/10/25 10:13:02,無
5902091100,佳加藥局,高雄市前鎮區瑞北路１１４號,120.3325,22.60923,(07)7228112,羅氏家用新冠病毒抗原自我檢測套組,116,2022/10/25 10:13:02,早上8:00開始銷售快篩  售完為止， 星期日正常營業
5902091128,北京藥局,高雄市前鎮區公正路３１號,120.3322,22.60291,(07)7113100,羅氏家用新冠病毒抗原自我檢測套組,146,2022/10/25 10:13:02,發放方式，8；00現場過卡
5902092205,百宏中西大藥局,高雄市前鎮區復興三路１９４號,120.3117,22.61311,(07)3386719,羅氏家用新冠病毒抗原自我檢測套組,361,2022/10/25 10:13:02,無
5902092296,迎廣藥局,高雄市前鎮區林森三路１５０號２樓,120.3089,22.61357,(07)3321466,羅氏家用新冠病毒抗原自我檢測套組,69,2022/10/25 10:13:02,週一至周六08:30至12:00  15:00至18:00 19:00至21:30 星期六晚休息  星期日休息
5902092321,彥芳藥局,高雄市前鎮區長江街６５號１樓,120.3156,22.60993,(07)3302007,羅氏家用新冠病毒抗原自我檢測套組,41,2022/10/25 10:13:02,實名制快篩及口罩銷售時間:  週一至週六 早上9:00 開始賣完為止（ 備註 : 週日公休， 週六營業到下午6:00止）
5902092410,旺盛藥局,高雄市前鎮區永豐路１０８號,120.3337,22.6065,(07)7512899,羅氏家用新冠病毒抗原自我檢測套組,370,2022/10/25 10:13:02,過年期間 111／01／31下午至111／02／03  休診
5902092492,元生藥局,高雄市前鎮區鎮興路２２６號１樓,120.3117,22.59305,(07)8156356,羅氏家用新冠病毒抗原自我檢測套組,118,2022/10/25 10:13:02,無
5902092554,協和藥局,高雄市前鎮區中華五路９８３號,120.306,22.60221,(07)5377769,羅氏家用新冠病毒抗原自我檢測套組,167,2022/10/25 10:13:02,快篩代售:  星期天休息   周一至周五下午2點起   周六:早上10點起  售完為止
5902092643,晏昇藥局,高雄市前鎮區凱旋三路８１號,120.3247,22.60678,(07)7235136,羅氏家用新冠病毒抗原自我檢測套組,88,2022/10/25 10:13:02,快篩代售時間:早上8:30
5902092896,廣泰藥局,高雄市前鎮區瑞北路５６號,120.3346,22.60931,(07)7162166,羅氏家用新冠病毒抗原自我檢測套組,14,2022/10/25 10:13:02,快篩實名制早上11點販賣  星期日停賣
5902092910,健家藥局,高雄市前鎮區二聖二路４５號,120.3165,22.61293,(07)3389986,羅氏家用新冠病毒抗原自我檢測套組,245,2022/10/25 10:13:02,周一至周六，早上9:00營業
5902092956,慈濟健保藥局,高雄市前鎮區鎮州路２１１號,120.3082,22.58819,(07)8159788,羅氏家用新冠病毒抗原自我檢測套組,122,2022/10/25 10:13:02,每天早上8點開始賣.售完為止藥局販售口罩時間，依藥局門口公告時間為主（售完為止）
5902100033,旗后藥局,高雄市旗津區中洲三路７１５號,120.2705,22.61096,(07)5715838,羅氏家用新冠病毒抗原自我檢測套組,96,2022/10/25 10:13:02,無
5902100042,千佑藥局,高雄市旗津區復興里中洲三路５１３號,120.2736,22.60608,(07)5712619,羅氏家用新冠病毒抗原自我檢測套組,144,2022/10/25 10:13:02,10月1日-10月31日早上08.31至10.30為販賣快篩時間
5902110093,鳳明中西大藥局,高雄市小港區二苓路２４７號,120.3477,22.56534,(07)8011846,羅氏家用新冠病毒抗原自我檢測套組,275,2022/10/25 10:13:02,無
5902110299,大裕藥局,高雄市小港區小港里小港路２６１號,120.3359,22.56386,(07)8211467,羅氏家用新冠病毒抗原自我檢測套組,287,2022/10/25 10:13:02,快篩星期一到六早上九點販售 星期日休息
5902110422,臨生藥局,高雄市小港區鳳鳴路１４６－４號,120.3588,22.51445,(07)8711290,羅氏家用新冠病毒抗原自我檢測套組,28,2022/10/25 10:13:02,上午9時開始販售快篩劑售完為止。
5902110593,慈林藥局,高雄市小港區鳳林路９３號,120.3464,22.52635,(07)8718087,羅氏家用新冠病毒抗原自我檢測套組,194,2022/10/25 10:13:02,早上9:00開始販售，售完為止，周日不販售（10:30~12:00）（18:30~20:00）較忙碌，需稍作等待.
5902110600,高泰藥局,高雄市小港區桂陽路７號,120.3584,22.58144,(07)7930043,羅氏家用新冠病毒抗原自我檢測套組,186,2022/10/25 10:13:02,即日起，營業日早上7:30 為販賣快篩時間，售完為止
5902110628,悅是康藥局,高雄市小港區漢民路２７６號,120.3536,22.56665,(07)8010012,羅氏家用新冠病毒抗原自我檢測套組,62,2022/10/25 10:13:02,快篩不限時間、領完為止
5902111796,力安藥師藥局,高雄市小港區桂陽路316號１樓,120.3522,22.58211,(07)7918167,羅氏家用新冠病毒抗原自我檢測套組,242,2022/10/25 10:13:02,快篩實名制:週一~週六早上07:30售完為止.週日公休
5902111938,丁丁藥局小港店,高雄市小港區宏平路８５號,120.3635,22.57096,(07)8603388,羅氏家用新冠病毒抗原自我檢測套組,171,2022/10/25 10:13:02,營業時間9-23，實名制快篩9點開始賣（中秋節營業至17:55）
5903010038,金宏健保藥局,臺中市豐原區安康路１０３號,120.7258,24.24303,(04)25288262,羅氏家用新冠病毒抗原自我檢測套組,148,2022/10/25 10:13:02,營業時間:星期一至星期六上午9:00-晚上9:00
5903010127,友誠藥局,臺中市豐原區豐東路４０１號１樓,120.7336,24.25457,(04)25132371,羅氏家用新冠病毒抗原自我檢測套組,678,2022/10/25 10:13:02,禮拜一至禮拜日快篩發放時間上午九點至晚上九點，售完為止。
5903010145,維立藥局,臺中市豐原區豐南街２號１樓,120.7118,24.23956,(04)25337605,羅氏家用新冠病毒抗原自我檢測套組,302,2022/10/25 10:13:02,營業時間 8點30~21點30，星期日無營業
5903010181,永豐藥局,臺中市豐原區中山路４２２號１樓,120.7153,24.24733,(04)25280088,羅氏家用新冠病毒抗原自我檢測套組,74,2022/10/25 10:13:02,無
5903010261,豐原西勢藥局,臺中市豐原區西勢路２００號１樓,120.7067,24.24379,(04)25262330,羅氏家用新冠病毒抗原自我檢測套組,238,2022/10/25 10:13:02,實名制快篩販售時間每日09:00-21:30為止，不便之處敬請見諒。
5903010289,心美日藥局,臺中市豐原區中山路３５９號１樓,120.7149,24.24929,(04)25260703,羅氏家用新冠病毒抗原自我檢測套組,487,2022/10/25 10:13:02,早上8:00販售（如貨運延遲則改為14:00）
5903010341,昭仁藥局,臺中市豐原區南陽路１４０號,120.7307,24.24275,(04)25243559,羅氏家用新冠病毒抗原自我檢測套組,206,2022/10/25 10:13:02,早上8:30販售
5903010350,甲蒂健保藥局,臺中市豐原區豐東路３０８號,120.7331,24.25093,(04)25256028,羅氏家用新冠病毒抗原自我檢測套組,638,2022/10/25 10:13:02,無
5903010449,豐原藥局,臺中市豐原區新生北路２０６號之１（１樓）,120.7219,24.2551,(04)25260119,羅氏家用新冠病毒抗原自我檢測套組,65,2022/10/25 10:13:02,週一至週六上午8:30-11:30。週一下午4-8:30，週三晚7-8:30。10／10雙十休息。
5903010458,心之藥局,臺中市豐原區中山路５０４號,120.7149,24.25009,(04)25254959,羅氏家用新冠病毒抗原自我檢測套組,43,2022/10/25 10:13:02,周一至周五 賣完為止
5903010485,大樹圓環藥局,臺中市豐原區圓環東路６１７號１樓,120.7283,24.25084,(04)25122212,羅氏家用新冠病毒抗原自我檢測套組,508,2022/10/25 10:13:02,口罩販售時間：14:00 - 16:00
5903010501,佑全豐原圓環東藥局,臺中市豐原區圓環東路５４８、５５０、５５２、５５４號１樓,120.7275,24.24948,(04)25246069,羅氏家用新冠病毒抗原自我檢測套組,150,2022/10/25 10:13:02,營業時間9:00-22:00，快篩購買時間09:00至21:30止
5903010510,安德豐原藥局,臺中市豐原區中正路２９５號１樓,120.7159,24.25142,(04)25200733,羅氏家用新冠病毒抗原自我檢測套組,78,2022/10/25 10:13:02,無
5903010547,佑全豐原中正藥局,臺中市豐原區中正路２２３、２２５號１、２樓,120.7175,24.25179,(04)25152886,羅氏家用新冠病毒抗原自我檢測套組,256,2022/10/25 10:13:02,實名制快篩販售時間: 9:00至售完為止。請關注本藥局臉書最新訊息。各醫院診所慢箋、牙科箋領藥全年無休
5903010556,升禾和大藥局,臺中市豐原區育英路２６號１樓,120.7163,24.24346,(04)25293099,羅氏家用新冠病毒抗原自我檢測套組,83,2022/10/25 10:13:02,快篩試劑 星期二-六08:00 星期日-一 09:00 開始販售 售完為止
5903010583,林居藥局,臺中市豐原區源豐路１１４號１樓,120.7173,24.25367,(04)25159168,羅氏家用新冠病毒抗原自我檢測套組,77,2022/10/25 10:13:02,快篩依當天物流送貨時間， 會在 FB林居藥局 公告販售時間， 謝謝
5903010609,隔壁藥局,臺中市豐原區一心路２４０之２號１樓,120.7007,24.24613,(04)25231527,羅氏家用新冠病毒抗原自我檢測套組,20,2022/10/25 10:13:02,無
5903020034,國良豐藥局,臺中市東勢區豐勢路２１號１樓,120.8318,24.24779,(04)25885778,羅氏家用新冠病毒抗原自我檢測套組,119,2022/10/25 10:13:02,快篩試劑全天販售
5903020052,東勢福倫藥局,臺中市東勢區豐勢路４３８號,120.829,24.25586,(04)25876118,羅氏家用新冠病毒抗原自我檢測套組,83,2022/10/25 10:13:02,＜快篩＞ 早上08:00開賣.賣完為止
5903020089,新明通藥局,臺中市東勢區豐勢路２３２號１樓,120.8302,24.25113,(04)25873969,羅氏家用新冠病毒抗原自我檢測套組,230,2022/10/25 10:13:02,無
5903030012,康好藥局,臺中市大甲區三民路１３２－２號,120.622,24.34851,(04)26802149,羅氏家用新冠病毒抗原自我檢測套組,21,2022/10/25 10:13:02,每天早上8-12點.下午14:30至售完為止.星期四不銷售. 星期日只銷售前日剩餘口罩
5903030030,大甲健康藥局,臺中市大甲區蔣公路２４２-１號１樓,120.6195,24.34722,(04)26805833,羅氏家用新冠病毒抗原自我檢測套組,19,2022/10/25 10:13:02,周一至周六營業，周日公休
5903030058,康達藥局,臺中市大甲區蔣公路２６６號１樓,120.6189,24.34749,(04)26862001,羅氏家用新冠病毒抗原自我檢測套組,814,2022/10/25 10:13:02,快篩試劑每日的販售時間為早上8點
5903030067,甲尚藥局,臺中市大甲區順天路１２９號１樓,120.622,24.3446,(04)26760885,羅氏家用新冠病毒抗原自我檢測套組,172,2022/10/25 10:13:02,實名制 快篩 早0800 開賣
5903030085,廣元藥局,臺中市大甲區順天路１４６號１樓,120.6224,24.34495,(04)26872843,羅氏家用新冠病毒抗原自我檢測套組,240,2022/10/25 10:13:02,上午8點10分開始販賣名制快篩試劑.售完為止
5903030110,大甲啄木鳥藥局,臺中市大甲區中山路１段９０５號,120.6251,24.3431,(04)26804502,羅氏家用新冠病毒抗原自我檢測套組,86,2022/10/25 10:13:02,啄木鳥藥局提供消費者藥妝保健、妊娠育嬰、處方箋領藥等全面的健康照護需求。
5903030156,盈盈藥局,臺中市大甲區文武路１８號,120.626,24.34582,(04)26804212,羅氏家用新冠病毒抗原自我檢測套組,134,2022/10/25 10:13:02,每天早上０８：２０開始銷售，售完為止，庫存會歸零
5903030165,民和藥局,臺中市大甲區德興路６８號,120.6233,24.35089,(04)26871212,羅氏家用新冠病毒抗原自我檢測套組,78,2022/10/25 10:13:02,實名制快篩販售時間：早上8點到中午12點。周日公休。
5903030183,志明藥局,臺中市大甲區民生路２１號,120.6264,24.34676,(04)26876221,羅氏家用新冠病毒抗原自我檢測套組,150,2022/10/25 10:13:02,無
5903030192,大甲合和藥局,臺中市大甲區甲后路５段２６９號１樓,120.6338,24.34469,(04)26802310,羅氏家用新冠病毒抗原自我檢測套組,62,2022/10/25 10:13:02,無
5903030209,世芳中西藥局,臺中市大甲區光明路１２８之３號１樓,120.6224,24.34447,(04)26861906,羅氏家用新冠病毒抗原自我檢測套組,117,2022/10/25 10:13:02,46／12／31（含）以前、105／09／02（含）以後出生免費領取快篩1份（5劑）。
5903040036,得康藥局,臺中市清水區高美路１１７號,120.5753,24.27879,(04)26260622,羅氏家用新冠病毒抗原自我檢測套組,23,2022/10/25 10:13:02,有提供快篩試劑領取服務
5903040072,碧綠谷藥局,臺中市清水區中華路５２５號,120.5718,24.27605,(04)26281151,羅氏家用新冠病毒抗原自我檢測套組,122,2022/10/25 10:13:02,09:30發放快篩.星期日休息.癌症諮詢.慢箋領藥.長照特約.更年期.糖尿病.戒菸諮詢.孕期保健.小兒營養
5903040090,清雲藥局,臺中市清水區南社路３５５之１號１樓,120.5601,24.26694,(04)26264893,羅氏家用新冠病毒抗原自我檢測套組,105,2022/10/25 10:13:02,快篩代售: 週一至週五8:00，週六9:00開始，週日公休。
5903040107,佑全清水中山三藥局,臺中市清水區中山路２４、２６、２８號１樓,120.572,24.26043,(04)26224469,羅氏家用新冠病毒抗原自我檢測套組,482,2022/10/25 10:13:02,實名制快篩每日早上9點開始。請關注本藥局臉書最新訊息。各醫院診所慢箋、牙科箋領藥全年無休。
5903040116,千順藥局,臺中市清水區光復街１１０－２號１樓,120.5752,24.27125,(04)26220580,羅氏家用新冠病毒抗原自我檢測套組,178,2022/10/25 10:13:02,快篩試劑12:00準時販售，另有提供領慢籤服務及保健食品，任何疑問請洽藥師。
5903050069,進騰藥局,臺中市沙鹿區鎮南路２段２３４號,120.5689,24.22394,(04)26314418,羅氏家用新冠病毒抗原自我檢測套組,171,2022/10/25 10:13:02,營業時間8:00-22:00
5903050087,仁暉健保處方藥局,臺中市沙鹿區向上路７段１３０號,120.5643,24.20637,(04)26365626,羅氏家用新冠病毒抗原自我檢測套組,193,2022/10/25 10:13:02,實名制快篩，星期一到六營業時間早上8.30開始販售，售完即止。星期日公休。
5903050103,北勢進騰藥局,臺中市沙鹿區北勢東路５０９之７號１樓,120.576,24.22526,(04)26330893,羅氏家用新冠病毒抗原自我檢測套組,56,2022/10/25 10:13:02,營業時間12:00-21:00，每日12:00販售實名制快篩
5903050149,立好藥局,臺中市沙鹿區北勢東路６９３號１樓,120.5722,24.22957,(04)26522389,羅氏家用新冠病毒抗原自我檢測套組,340,2022/10/25 10:13:02,快篩營業時間皆販售
5903050176,全國藥局,臺中市沙鹿區臺灣大道７段９９２號,120.5622,24.24074,(04)26627097,羅氏家用新冠病毒抗原自我檢測套組,85,2022/10/25 10:13:02,快篩劑每日配送時間不同，依現場到貨為主，現場排隊購買
5903050194,樂齊藥局,臺中市沙鹿區北中路８６－１、８６－２號,120.5692,24.22827,(04)26338867,羅氏家用新冠病毒抗原自我檢測套組,170,2022/10/25 10:13:02,防疫家用快篩試劑每日10 點開賣，售完為止，庫存請依現場為主。
5903050210,富康沙鹿藥局,臺中市沙鹿區沙田路１４２號１樓,120.5595,24.23613,(04)26633399,羅氏家用新冠病毒抗原自我檢測套組,134,2022/10/25 10:13:02,*早上八點販售防疫快篩。
5903050238,百岳大藥局,臺中市沙鹿區鎮南路二段７７號１樓,120.5697,24.21895,(04)26359825,羅氏家用新冠病毒抗原自我檢測套組,524,2022/10/25 10:13:02,快篩實名制販售服務時間：0900-2100
5903050247,好利藥局,臺中市沙鹿區中山路４８７－１號１樓,120.5619,24.2454,(04)26630087,羅氏家用新冠病毒抗原自我檢測套組,132,2022/10/25 10:13:02,快篩實名制 每日8:00開賣 星期日休息
5903050256,大安心藥局,臺中市沙鹿區星河路１２－１號１樓,120.5679,24.25208,(04)26620082,羅氏家用新冠病毒抗原自我檢測套組,200,2022/10/25 10:13:02,每日0900開始販售，周日也有販售。   **可調劑醫院／牙科／診所處方**
5903050265,立全藥局,臺中市沙鹿區自強路６９２號１樓,120.5614,24.20679,(04)26352689,羅氏家用新冠病毒抗原自我檢測套組,106,2022/10/25 10:13:02,無
5903050274,鹿寮藥局,臺中市沙鹿區中山路４６１、４６１－１號１、２樓,120.5615,24.24387,(04)26630677,羅氏家用新冠病毒抗原自我檢測套組,177,2022/10/25 10:13:02,快篩實名制，每天16:00開始販售，售完為止。
5903060010,大芳藥局,臺中市梧棲區中央路１段９０７號,120.5381,24.24742,(04)26561755,羅氏家用新冠病毒抗原自我檢測套組,207,2022/10/25 10:13:02,實名制暨免費（6歲以下與65歲以上）快篩（週一至週六）下午兩點開始販售及領取
5903060038,梧棲玖裕藥局,臺中市梧棲區中和街８５號,120.5316,24.25545,(04)26583909,羅氏家用新冠病毒抗原自我檢測套組,276,2022/10/25 10:13:02,快篩代售 開門就賣（中午12:20~13:20休息）
5903060092,佑全梧棲文化藥局,臺中市梧棲區文化路二段１５０號１樓,120.531,24.25526,(04)26566433,羅氏家用新冠病毒抗原自我檢測套組,545,2022/10/25 10:13:02,（0~6歲免費）早上9點營業若貨到即可開始販售，不用領號碼牌，售完為止。
5903060127,沐光藥師連鎖藥局梧棲店,臺中市梧棲區文昌路４４９號１樓,120.5386,24.24486,(04)26562262,羅氏家用新冠病毒抗原自我檢測套組,121,2022/10/25 10:13:02,實名制快篩當天物流配送到就開賣（https:／／reurl.cc／NA67lm） 營業時間 9:30~21:30慢箋領藥／長照特約／孕期&小兒保健
